[
  {
    "zipcode":90001,
    "cityname":"Firestone Park",
    "countyname":"Los Angeles",
    "stateabbr":"CA",
    "latitude":33.97331,
    "longitude":-118.243612
  },
  {
    "zipcode":90001,
    "cityname":"Firestone Pk",
    "countyname":"Los Angeles",
    "stateabbr":"CA",
    "latitude":33.97331,
    "longitude":-118.243612
  },
  {
    "zipcode":90001,
    "cityname":"Los Angeles",
    "countyname":"Los Angeles",
    "stateabbr":"CA",
    "latitude":33.97331,
    "longitude":-118.243612
  },
  {
    "zipcode":90002,
    "cityname":"August F. Haw",
    "countyname":"Los Angeles",
    "stateabbr":"CA",
    "latitude":33.948432,
    "longitude":-118.245196
  },
  {
    "zipcode":90002,
    "cityname":"Los Angeles",
    "countyname":"Los Angeles",
    "stateabbr":"CA",
    "latitude":33.948432,
    "longitude":-118.245196
  },
  {
    "zipcode":90002,
    "cityname":"Watts",
    "countyname":"Los Angeles",
    "stateabbr":"CA",
    "latitude":33.948432,
    "longitude":-118.245196
  },
  {
    "zipcode":90003,
    "cityname":"Broadway Manchester",
    "countyname":"Los Angeles",
    "stateabbr":"CA",
    "latitude":33.962989,
    "longitude":-118.272517
  },
  {
    "zipcode":90003,
    "cityname":"Los Angeles",
    "countyname":"Los Angeles",
    "stateabbr":"CA",
    "latitude":33.962989,
    "longitude":-118.272517
  },
  {
    "zipcode":90004,
    "cityname":"Los Angeles",
    "countyname":"Los Angeles",
    "stateabbr":"CA",
    "latitude":34.076333,
    "longitude":-118.307713
  },
  {
    "zipcode":90004,
    "cityname":"Oakwood",
    "countyname":"Los Angeles",
    "stateabbr":"CA",
    "latitude":34.076333,
    "longitude":-118.307713
  },
  {
    "zipcode":90005,
    "cityname":"Los Angeles",
    "countyname":"Los Angeles",
    "stateabbr":"CA",
    "latitude":34.055509,
    "longitude":-118.30922
  },
  {
    "zipcode":90005,
    "cityname":"Sanford",
    "countyname":"Los Angeles",
    "stateabbr":"CA",
    "latitude":34.055509,
    "longitude":-118.30922
  },
  {
    "zipcode":90006,
    "cityname":"Los Angeles",
    "countyname":"Los Angeles",
    "stateabbr":"CA",
    "latitude":34.045817,
    "longitude":-118.290338
  },
  {
    "zipcode":90006,
    "cityname":"Pico Heights",
    "countyname":"Los Angeles",
    "stateabbr":"CA",
    "latitude":34.045817,
    "longitude":-118.290338
  },
  {
    "zipcode":90007,
    "cityname":"Dockweiler",
    "countyname":"Los Angeles",
    "stateabbr":"CA",
    "latitude":34.026525,
    "longitude":-118.282408
  },
  {
    "zipcode":90007,
    "cityname":"Los Angeles",
    "countyname":"Los Angeles",
    "stateabbr":"CA",
    "latitude":34.026525,
    "longitude":-118.282408
  },
  {
    "zipcode":90008,
    "cityname":"Baldwin Hills",
    "countyname":"Los Angeles",
    "stateabbr":"CA",
    "latitude":34.006715,
    "longitude":-118.339229
  },
  {
    "zipcode":90008,
    "cityname":"Crenshaw",
    "countyname":"Los Angeles",
    "stateabbr":"CA",
    "latitude":34.006715,
    "longitude":-118.339229
  },
  {
    "zipcode":90008,
    "cityname":"Leimert Park",
    "countyname":"Los Angeles",
    "stateabbr":"CA",
    "latitude":34.006715,
    "longitude":-118.339229
  },
  {
    "zipcode":90008,
    "cityname":"Los Angeles",
    "countyname":"Los Angeles",
    "stateabbr":"CA",
    "latitude":34.006715,
    "longitude":-118.339229
  },
  {
    "zipcode":90009,
    "cityname":"Los Angeles",
    "countyname":"Los Angeles",
    "stateabbr":"CA",
    "latitude":33.946348,
    "longitude":-118.379884
  },
  {
    "zipcode":90009,
    "cityname":"Los Angeles AFB",
    "countyname":"Los Angeles",
    "stateabbr":"CA",
    "latitude":33.946348,
    "longitude":-118.379884
  },
  {
    "zipcode":90009,
    "cityname":"Los Angeles International Ai",
    "countyname":"Los Angeles",
    "stateabbr":"CA",
    "latitude":33.946348,
    "longitude":-118.379884
  },
  {
    "zipcode":90009,
    "cityname":"Los Angls AFB",
    "countyname":"Los Angeles",
    "stateabbr":"CA",
    "latitude":33.946348,
    "longitude":-118.379884
  },
  {
    "zipcode":90010,
    "cityname":"Los Angeles",
    "countyname":"Los Angeles",
    "stateabbr":"CA",
    "latitude":34.063478,
    "longitude":-118.314966
  },
  {
    "zipcode":90010,
    "cityname":"Sanford",
    "countyname":"Los Angeles",
    "stateabbr":"CA",
    "latitude":34.063478,
    "longitude":-118.314966
  },
  {
    "zipcode":90011,
    "cityname":"Los Angeles",
    "countyname":"Los Angeles",
    "stateabbr":"CA",
    "latitude":34.006146,
    "longitude":-118.257237
  },
  {
    "zipcode":90012,
    "cityname":"Federal",
    "countyname":"Los Angeles",
    "stateabbr":"CA",
    "latitude":34.063679,
    "longitude":-118.238854
  },
  {
    "zipcode":90012,
    "cityname":"Los Angeles",
    "countyname":"Los Angeles",
    "stateabbr":"CA",
    "latitude":34.063679,
    "longitude":-118.238854
  },
  {
    "zipcode":90013,
    "cityname":"Federal",
    "countyname":"Los Angeles",
    "stateabbr":"CA",
    "latitude":34.046676,
    "longitude":-118.241961
  },
  {
    "zipcode":90013,
    "cityname":"Los Angeles",
    "countyname":"Los Angeles",
    "stateabbr":"CA",
    "latitude":34.046676,
    "longitude":-118.241961
  },
  {
    "zipcode":90014,
    "cityname":"Los Angeles",
    "countyname":"Los Angeles",
    "stateabbr":"CA",
    "latitude":34.041273,
    "longitude":-118.252399
  },
  {
    "zipcode":90015,
    "cityname":"Del Valle Finance",
    "countyname":"Los Angeles",
    "stateabbr":"CA",
    "latitude":34.038557,
    "longitude":-118.268695
  },
  {
    "zipcode":90015,
    "cityname":"Dowtown Carrier Annex",
    "countyname":"Los Angeles",
    "stateabbr":"CA",
    "latitude":34.038557,
    "longitude":-118.268695
  },
  {
    "zipcode":90015,
    "cityname":"Los Angeles",
    "countyname":"Los Angeles",
    "stateabbr":"CA",
    "latitude":34.038557,
    "longitude":-118.268695
  },
  {
    "zipcode":90015,
    "cityname":"Textile Finance",
    "countyname":"Los Angeles",
    "stateabbr":"CA",
    "latitude":34.038557,
    "longitude":-118.268695
  },
  {
    "zipcode":90016,
    "cityname":"Los Angeles",
    "countyname":"Los Angeles",
    "stateabbr":"CA",
    "latitude":34.027729,
    "longitude":-118.351874
  },
  {
    "zipcode":90016,
    "cityname":"West Adams",
    "countyname":"Los Angeles",
    "stateabbr":"CA",
    "latitude":34.027729,
    "longitude":-118.351874
  },
  {
    "zipcode":90017,
    "cityname":"Foy",
    "countyname":"Los Angeles",
    "stateabbr":"CA",
    "latitude":34.053387,
    "longitude":-118.265378
  },
  {
    "zipcode":90017,
    "cityname":"Los Angeles",
    "countyname":"Los Angeles",
    "stateabbr":"CA",
    "latitude":34.053387,
    "longitude":-118.265378
  },
  {
    "zipcode":90018,
    "cityname":"Cimarron",
    "countyname":"Los Angeles",
    "stateabbr":"CA",
    "latitude":34.030481,
    "longitude":-118.318046
  },
  {
    "zipcode":90018,
    "cityname":"Dockweiler",
    "countyname":"Los Angeles",
    "stateabbr":"CA",
    "latitude":34.030481,
    "longitude":-118.318046
  },
  {
    "zipcode":90018,
    "cityname":"Los Angeles",
    "countyname":"Los Angeles",
    "stateabbr":"CA",
    "latitude":34.030481,
    "longitude":-118.318046
  },
  {
    "zipcode":90019,
    "cityname":"Los Angeles",
    "countyname":"Los Angeles",
    "stateabbr":"CA",
    "latitude":34.048281,
    "longitude":-118.342487
  },
  {
    "zipcode":90019,
    "cityname":"Rimpau",
    "countyname":"Los Angeles",
    "stateabbr":"CA",
    "latitude":34.048281,
    "longitude":-118.342487
  },
  {
    "zipcode":90020,
    "cityname":"Los Angeles",
    "countyname":"Los Angeles",
    "stateabbr":"CA",
    "latitude":34.068259,
    "longitude":-118.31043
  },
  {
    "zipcode":90020,
    "cityname":"Sanford",
    "countyname":"Los Angeles",
    "stateabbr":"CA",
    "latitude":34.068259,
    "longitude":-118.31043
  },
  {
    "zipcode":90021,
    "cityname":"Los Angeles",
    "countyname":"Los Angeles",
    "stateabbr":"CA",
    "latitude":34.027564,
    "longitude":-118.241023
  },
  {
    "zipcode":90021,
    "cityname":"Market",
    "countyname":"Los Angeles",
    "stateabbr":"CA",
    "latitude":34.027564,
    "longitude":-118.241023
  },
  {
    "zipcode":90022,
    "cityname":"Commerce",
    "countyname":"Los Angeles",
    "stateabbr":"CA",
    "latitude":34.022686,
    "longitude":-118.152363
  },
  {
    "zipcode":90022,
    "cityname":"East Los Angeles",
    "countyname":"Los Angeles",
    "stateabbr":"CA",
    "latitude":34.022686,
    "longitude":-118.152363
  },
  {
    "zipcode":90022,
    "cityname":"Est Ls Angls",
    "countyname":"Los Angeles",
    "stateabbr":"CA",
    "latitude":34.022686,
    "longitude":-118.152363
  },
  {
    "zipcode":90022,
    "cityname":"Los Angeles",
    "countyname":"Los Angeles",
    "stateabbr":"CA",
    "latitude":34.022686,
    "longitude":-118.152363
  },
  {
    "zipcode":90023,
    "cityname":"Commerce",
    "countyname":"Los Angeles",
    "stateabbr":"CA",
    "latitude":34.025925,
    "longitude":-118.200657
  },
  {
    "zipcode":90023,
    "cityname":"Los Angeles",
    "countyname":"Los Angeles",
    "stateabbr":"CA",
    "latitude":34.025925,
    "longitude":-118.200657
  },
  {
    "zipcode":90023,
    "cityname":"Lugo",
    "countyname":"Los Angeles",
    "stateabbr":"CA",
    "latitude":34.025925,
    "longitude":-118.200657
  },
  {
    "zipcode":90024,
    "cityname":"Los Angeles",
    "countyname":"Los Angeles",
    "stateabbr":"CA",
    "latitude":34.060189,
    "longitude":-118.4364
  },
  {
    "zipcode":90024,
    "cityname":"Village",
    "countyname":"Los Angeles",
    "stateabbr":"CA",
    "latitude":34.060189,
    "longitude":-118.4364
  },
  {
    "zipcode":90025,
    "cityname":"Los Angeles",
    "countyname":"Los Angeles",
    "stateabbr":"CA",
    "latitude":34.044073,
    "longitude":-118.451381
  },
  {
    "zipcode":90025,
    "cityname":"W Los Angeles",
    "countyname":"Los Angeles",
    "stateabbr":"CA",
    "latitude":34.044073,
    "longitude":-118.451381
  },
  {
    "zipcode":90025,
    "cityname":"West Los Angeles",
    "countyname":"Los Angeles",
    "stateabbr":"CA",
    "latitude":34.044073,
    "longitude":-118.451381
  },
  {
    "zipcode":90025,
    "cityname":"WLA",
    "countyname":"Los Angeles",
    "stateabbr":"CA",
    "latitude":34.044073,
    "longitude":-118.451381
  },
  {
    "zipcode":90026,
    "cityname":"Echo Park",
    "countyname":"Los Angeles",
    "stateabbr":"CA",
    "latitude":34.079313,
    "longitude":-118.262692
  },
  {
    "zipcode":90026,
    "cityname":"Edendale",
    "countyname":"Los Angeles",
    "stateabbr":"CA",
    "latitude":34.079313,
    "longitude":-118.262692
  },
  {
    "zipcode":90026,
    "cityname":"Los Angeles",
    "countyname":"Los Angeles",
    "stateabbr":"CA",
    "latitude":34.079313,
    "longitude":-118.262692
  },
  {
    "zipcode":90026,
    "cityname":"Silver Lake",
    "countyname":"Los Angeles",
    "stateabbr":"CA",
    "latitude":34.079313,
    "longitude":-118.262692
  },
  {
    "zipcode":90027,
    "cityname":"Hollywood",
    "countyname":"Los Angeles",
    "stateabbr":"CA",
    "latitude":34.12356,
    "longitude":-118.28784
  },
  {
    "zipcode":90027,
    "cityname":"Los Angeles",
    "countyname":"Los Angeles",
    "stateabbr":"CA",
    "latitude":34.12356,
    "longitude":-118.28784
  },
  {
    "zipcode":90027,
    "cityname":"Los Feliz",
    "countyname":"Los Angeles",
    "stateabbr":"CA",
    "latitude":34.12356,
    "longitude":-118.28784
  },
  {
    "zipcode":90028,
    "cityname":"Hollywood",
    "countyname":"Los Angeles",
    "stateabbr":"CA",
    "latitude":34.099218,
    "longitude":-118.327098
  },
  {
    "zipcode":90028,
    "cityname":"Los Angeles",
    "countyname":"Los Angeles",
    "stateabbr":"CA",
    "latitude":34.099218,
    "longitude":-118.327098
  },
  {
    "zipcode":90029,
    "cityname":"Los Angeles",
    "countyname":"Los Angeles",
    "stateabbr":"CA",
    "latitude":34.090213,
    "longitude":-118.293835
  },
  {
    "zipcode":90029,
    "cityname":"Vermont",
    "countyname":"Los Angeles",
    "stateabbr":"CA",
    "latitude":34.090213,
    "longitude":-118.293835
  },
  {
    "zipcode":90030,
    "cityname":"Los Angeles",
    "countyname":"Los Angeles",
    "stateabbr":"CA",
    "latitude":34.062074,
    "longitude":-118.238504
  },
  {
    "zipcode":90031,
    "cityname":"Lincoln Heights",
    "countyname":"Los Angeles",
    "stateabbr":"CA",
    "latitude":34.078396,
    "longitude":-118.211918
  },
  {
    "zipcode":90031,
    "cityname":"Lincoln Hts",
    "countyname":"Los Angeles",
    "stateabbr":"CA",
    "latitude":34.078396,
    "longitude":-118.211918
  },
  {
    "zipcode":90031,
    "cityname":"Los Angeles",
    "countyname":"Los Angeles",
    "stateabbr":"CA",
    "latitude":34.078396,
    "longitude":-118.211918
  },
  {
    "zipcode":90032,
    "cityname":"El Sereno Car",
    "countyname":"Los Angeles",
    "stateabbr":"CA",
    "latitude":34.080616,
    "longitude":-118.174263
  },
  {
    "zipcode":90032,
    "cityname":"Los Angeles",
    "countyname":"Los Angeles",
    "stateabbr":"CA",
    "latitude":34.080616,
    "longitude":-118.174263
  },
  {
    "zipcode":90033,
    "cityname":"Boyle Heights",
    "countyname":"Los Angeles",
    "stateabbr":"CA",
    "latitude":34.049807,
    "longitude":-118.209245
  },
  {
    "zipcode":90033,
    "cityname":"Los Angeles",
    "countyname":"Los Angeles",
    "stateabbr":"CA",
    "latitude":34.049807,
    "longitude":-118.209245
  },
  {
    "zipcode":90034,
    "cityname":"Los Angeles",
    "countyname":"Los Angeles",
    "stateabbr":"CA",
    "latitude":34.028026,
    "longitude":-118.399267
  },
  {
    "zipcode":90034,
    "cityname":"Palms",
    "countyname":"Los Angeles",
    "stateabbr":"CA",
    "latitude":34.028026,
    "longitude":-118.399267
  },
  {
    "zipcode":90035,
    "cityname":"Los Angeles",
    "countyname":"Los Angeles",
    "stateabbr":"CA",
    "latitude":34.051619,
    "longitude":-118.38358
  },
  {
    "zipcode":90035,
    "cityname":"Preuss",
    "countyname":"Los Angeles",
    "stateabbr":"CA",
    "latitude":34.051619,
    "longitude":-118.38358
  },
  {
    "zipcode":90036,
    "cityname":"Farmer Market",
    "countyname":"Los Angeles",
    "stateabbr":"CA",
    "latitude":34.067699,
    "longitude":-118.350907
  },
  {
    "zipcode":90036,
    "cityname":"Los Angeles",
    "countyname":"Los Angeles",
    "stateabbr":"CA",
    "latitude":34.067699,
    "longitude":-118.350907
  },
  {
    "zipcode":90036,
    "cityname":"Miracle Mile",
    "countyname":"Los Angeles",
    "stateabbr":"CA",
    "latitude":34.067699,
    "longitude":-118.350907
  },
  {
    "zipcode":90036,
    "cityname":"Wilshire-La Brea",
    "countyname":"Los Angeles",
    "stateabbr":"CA",
    "latitude":34.067699,
    "longitude":-118.350907
  },
  {
    "zipcode":90037,
    "cityname":"Green",
    "countyname":"Los Angeles",
    "stateabbr":"CA",
    "latitude":34.000915,
    "longitude":-118.288342
  },
  {
    "zipcode":90037,
    "cityname":"Los Angeles",
    "countyname":"Los Angeles",
    "stateabbr":"CA",
    "latitude":34.000915,
    "longitude":-118.288342
  },
  {
    "zipcode":90038,
    "cityname":"Hollywood",
    "countyname":"Los Angeles",
    "stateabbr":"CA",
    "latitude":34.091104,
    "longitude":-118.34303
  },
  {
    "zipcode":90038,
    "cityname":"Los Angeles",
    "countyname":"Los Angeles",
    "stateabbr":"CA",
    "latitude":34.091104,
    "longitude":-118.34303
  },
  {
    "zipcode":90038,
    "cityname":"W Hollywood",
    "countyname":"Los Angeles",
    "stateabbr":"CA",
    "latitude":34.091104,
    "longitude":-118.34303
  },
  {
    "zipcode":90038,
    "cityname":"West Hollywood",
    "countyname":"Los Angeles",
    "stateabbr":"CA",
    "latitude":34.091104,
    "longitude":-118.34303
  },
  {
    "zipcode":90038,
    "cityname":"Wilcox",
    "countyname":"Los Angeles",
    "stateabbr":"CA",
    "latitude":34.091104,
    "longitude":-118.34303
  },
  {
    "zipcode":90039,
    "cityname":"Griffith",
    "countyname":"Los Angeles",
    "stateabbr":"CA",
    "latitude":34.107325,
    "longitude":-118.260934
  },
  {
    "zipcode":90039,
    "cityname":"Los Angeles",
    "countyname":"Los Angeles",
    "stateabbr":"CA",
    "latitude":34.107325,
    "longitude":-118.260934
  },
  {
    "zipcode":90040,
    "cityname":"Commerce",
    "countyname":"Los Angeles",
    "stateabbr":"CA",
    "latitude":33.97698,
    "longitude":-118.12884
  },
  {
    "zipcode":90040,
    "cityname":"Cty of Cmmrce",
    "countyname":"Los Angeles",
    "stateabbr":"CA",
    "latitude":33.97698,
    "longitude":-118.12884
  },
  {
    "zipcode":90040,
    "cityname":"Los Angeles",
    "countyname":"Los Angeles",
    "stateabbr":"CA",
    "latitude":33.97698,
    "longitude":-118.12884
  },
  {
    "zipcode":90041,
    "cityname":"Eagle Rock",
    "countyname":"Los Angeles",
    "stateabbr":"CA",
    "latitude":34.137442,
    "longitude":-118.206258
  },
  {
    "zipcode":90041,
    "cityname":"Los Angeles",
    "countyname":"Los Angeles",
    "stateabbr":"CA",
    "latitude":34.137442,
    "longitude":-118.206258
  },
  {
    "zipcode":90042,
    "cityname":"Highland Park",
    "countyname":"Los Angeles",
    "stateabbr":"CA",
    "latitude":34.118577,
    "longitude":-118.189925
  },
  {
    "zipcode":90042,
    "cityname":"Los Angeles",
    "countyname":"Los Angeles",
    "stateabbr":"CA",
    "latitude":34.118577,
    "longitude":-118.189925
  },
  {
    "zipcode":90043,
    "cityname":"La Tijera",
    "countyname":"Los Angeles",
    "stateabbr":"CA",
    "latitude":33.990206,
    "longitude":-118.335759
  },
  {
    "zipcode":90043,
    "cityname":"Los Angeles",
    "countyname":"Los Angeles",
    "stateabbr":"CA",
    "latitude":33.990206,
    "longitude":-118.335759
  },
  {
    "zipcode":90043,
    "cityname":"View Park",
    "countyname":"Los Angeles",
    "stateabbr":"CA",
    "latitude":33.990206,
    "longitude":-118.335759
  },
  {
    "zipcode":90043,
    "cityname":"Windsor Hills",
    "countyname":"Los Angeles",
    "stateabbr":"CA",
    "latitude":33.990206,
    "longitude":-118.335759
  },
  {
    "zipcode":90044,
    "cityname":"August F. Haw",
    "countyname":"Los Angeles",
    "stateabbr":"CA",
    "latitude":33.956268,
    "longitude":-118.290701
  },
  {
    "zipcode":90044,
    "cityname":"Hancock",
    "countyname":"Los Angeles",
    "stateabbr":"CA",
    "latitude":33.956268,
    "longitude":-118.290701
  },
  {
    "zipcode":90044,
    "cityname":"Los Angeles",
    "countyname":"Los Angeles",
    "stateabbr":"CA",
    "latitude":33.956268,
    "longitude":-118.290701
  },
  {
    "zipcode":90045,
    "cityname":"Bradley International",
    "countyname":"Los Angeles",
    "stateabbr":"CA",
    "latitude":33.957494,
    "longitude":-118.397884
  },
  {
    "zipcode":90045,
    "cityname":"Los Angeles",
    "countyname":"Los Angeles",
    "stateabbr":"CA",
    "latitude":33.957494,
    "longitude":-118.397884
  },
  {
    "zipcode":90045,
    "cityname":"Playa Vista",
    "countyname":"Los Angeles",
    "stateabbr":"CA",
    "latitude":33.957494,
    "longitude":-118.397884
  },
  {
    "zipcode":90045,
    "cityname":"Westchester",
    "countyname":"Los Angeles",
    "stateabbr":"CA",
    "latitude":33.957494,
    "longitude":-118.397884
  },
  {
    "zipcode":90046,
    "cityname":"Los Angeles",
    "countyname":"Los Angeles",
    "stateabbr":"CA",
    "latitude":34.105576,
    "longitude":-118.366794
  },
  {
    "zipcode":90046,
    "cityname":"W Hollywood",
    "countyname":"Los Angeles",
    "stateabbr":"CA",
    "latitude":34.105576,
    "longitude":-118.366794
  },
  {
    "zipcode":90046,
    "cityname":"West Hollywood",
    "countyname":"Los Angeles",
    "stateabbr":"CA",
    "latitude":34.105576,
    "longitude":-118.366794
  },
  {
    "zipcode":90047,
    "cityname":"Los Angeles",
    "countyname":"Los Angeles",
    "stateabbr":"CA",
    "latitude":33.953467,
    "longitude":-118.311177
  },
  {
    "zipcode":90047,
    "cityname":"Wagner",
    "countyname":"Los Angeles",
    "stateabbr":"CA",
    "latitude":33.953467,
    "longitude":-118.311177
  },
  {
    "zipcode":90048,
    "cityname":"Bicentennial",
    "countyname":"Los Angeles",
    "stateabbr":"CA",
    "latitude":34.073253,
    "longitude":-118.377034
  },
  {
    "zipcode":90048,
    "cityname":"Briggs",
    "countyname":"Los Angeles",
    "stateabbr":"CA",
    "latitude":34.073253,
    "longitude":-118.377034
  },
  {
    "zipcode":90048,
    "cityname":"Los Angeles",
    "countyname":"Los Angeles",
    "stateabbr":"CA",
    "latitude":34.073253,
    "longitude":-118.377034
  },
  {
    "zipcode":90048,
    "cityname":"W Hollywood",
    "countyname":"Los Angeles",
    "stateabbr":"CA",
    "latitude":34.073253,
    "longitude":-118.377034
  },
  {
    "zipcode":90048,
    "cityname":"West Hollywood",
    "countyname":"Los Angeles",
    "stateabbr":"CA",
    "latitude":34.073253,
    "longitude":-118.377034
  },
  {
    "zipcode":90049,
    "cityname":"Barrington",
    "countyname":"Los Angeles",
    "stateabbr":"CA",
    "latitude":34.078365,
    "longitude":-118.486589
  },
  {
    "zipcode":90049,
    "cityname":"Brentwood",
    "countyname":"Los Angeles",
    "stateabbr":"CA",
    "latitude":34.078365,
    "longitude":-118.486589
  },
  {
    "zipcode":90049,
    "cityname":"Los Angeles",
    "countyname":"Los Angeles",
    "stateabbr":"CA",
    "latitude":34.078365,
    "longitude":-118.486589
  },
  {
    "zipcode":90050,
    "cityname":"Los Angeles",
    "countyname":"Los Angeles",
    "stateabbr":"CA",
    "latitude":34.121378,
    "longitude":-118.206906
  },
  {
    "zipcode":90051,
    "cityname":"August F. Haw",
    "countyname":"Los Angeles",
    "stateabbr":"CA",
    "latitude":34.062744,
    "longitude":-118.24314
  },
  {
    "zipcode":90051,
    "cityname":"Los Angeles",
    "countyname":"Los Angeles",
    "stateabbr":"CA",
    "latitude":34.062744,
    "longitude":-118.24314
  },
  {
    "zipcode":90052,
    "cityname":"Los Angeles",
    "countyname":"Los Angeles",
    "stateabbr":"CA",
    "latitude":33.974069,
    "longitude":-118.24851
  },
  {
    "zipcode":90053,
    "cityname":"Los Angeles",
    "countyname":"Los Angeles",
    "stateabbr":"CA",
    "latitude":34.055647,
    "longitude":-118.240465
  },
  {
    "zipcode":90054,
    "cityname":"Los Angeles",
    "countyname":"Los Angeles",
    "stateabbr":"CA",
    "latitude":34.059368,
    "longitude":-118.236094
  },
  {
    "zipcode":90055,
    "cityname":"Los Angeles",
    "countyname":"Los Angeles",
    "stateabbr":"CA",
    "latitude":34.047536,
    "longitude":-118.256556
  },
  {
    "zipcode":90056,
    "cityname":"Baldwin Hills",
    "countyname":"Los Angeles",
    "stateabbr":"CA",
    "latitude":33.984248,
    "longitude":-118.364182
  },
  {
    "zipcode":90056,
    "cityname":"Crenshaw",
    "countyname":"Los Angeles",
    "stateabbr":"CA",
    "latitude":33.984248,
    "longitude":-118.364182
  },
  {
    "zipcode":90056,
    "cityname":"Los Angeles",
    "countyname":"Los Angeles",
    "stateabbr":"CA",
    "latitude":33.984248,
    "longitude":-118.364182
  },
  {
    "zipcode":90056,
    "cityname":"Windsor Hills",
    "countyname":"Los Angeles",
    "stateabbr":"CA",
    "latitude":33.984248,
    "longitude":-118.364182
  },
  {
    "zipcode":90057,
    "cityname":"Flint",
    "countyname":"Los Angeles",
    "stateabbr":"CA",
    "latitude":34.060269,
    "longitude":-118.276734
  },
  {
    "zipcode":90057,
    "cityname":"Los Angeles",
    "countyname":"Los Angeles",
    "stateabbr":"CA",
    "latitude":34.060269,
    "longitude":-118.276734
  },
  {
    "zipcode":90058,
    "cityname":"Los Angeles",
    "countyname":"Los Angeles",
    "stateabbr":"CA",
    "latitude":34.0023,
    "longitude":-118.21152
  },
  {
    "zipcode":90058,
    "cityname":"Vernon",
    "countyname":"Los Angeles",
    "stateabbr":"CA",
    "latitude":34.0023,
    "longitude":-118.21152
  },
  {
    "zipcode":90059,
    "cityname":"August F. Haw",
    "countyname":"Los Angeles",
    "stateabbr":"CA",
    "latitude":33.926115,
    "longitude":-118.242201
  },
  {
    "zipcode":90059,
    "cityname":"Greenmead",
    "countyname":"Los Angeles",
    "stateabbr":"CA",
    "latitude":33.926115,
    "longitude":-118.242201
  },
  {
    "zipcode":90059,
    "cityname":"Los Angeles",
    "countyname":"Los Angeles",
    "stateabbr":"CA",
    "latitude":33.926115,
    "longitude":-118.242201
  },
  {
    "zipcode":90060,
    "cityname":"Los Angeles",
    "countyname":"Los Angeles",
    "stateabbr":"CA",
    "latitude":33.995744,
    "longitude":-118.422017
  },
  {
    "zipcode":90061,
    "cityname":"August F. Haw",
    "countyname":"Los Angeles",
    "stateabbr":"CA",
    "latitude":33.922433,
    "longitude":-118.275162
  },
  {
    "zipcode":90061,
    "cityname":"Los Angeles",
    "countyname":"Los Angeles",
    "stateabbr":"CA",
    "latitude":33.922433,
    "longitude":-118.275162
  },
  {
    "zipcode":90061,
    "cityname":"South",
    "countyname":"Los Angeles",
    "stateabbr":"CA",
    "latitude":33.922433,
    "longitude":-118.275162
  },
  {
    "zipcode":90062,
    "cityname":"Los Angeles",
    "countyname":"Los Angeles",
    "stateabbr":"CA",
    "latitude":34.00675,
    "longitude":-118.307195
  },
  {
    "zipcode":90062,
    "cityname":"Westvern",
    "countyname":"Los Angeles",
    "stateabbr":"CA",
    "latitude":34.00675,
    "longitude":-118.307195
  },
  {
    "zipcode":90063,
    "cityname":"Hazard",
    "countyname":"Los Angeles",
    "stateabbr":"CA",
    "latitude":34.042454,
    "longitude":-118.184723
  },
  {
    "zipcode":90063,
    "cityname":"Los Angeles",
    "countyname":"Los Angeles",
    "stateabbr":"CA",
    "latitude":34.042454,
    "longitude":-118.184723
  },
  {
    "zipcode":90064,
    "cityname":"Los Angeles",
    "countyname":"Los Angeles",
    "stateabbr":"CA",
    "latitude":34.035989,
    "longitude":-118.42262
  },
  {
    "zipcode":90064,
    "cityname":"Rancho Park",
    "countyname":"Los Angeles",
    "stateabbr":"CA",
    "latitude":34.035989,
    "longitude":-118.42262
  },
  {
    "zipcode":90065,
    "cityname":"Glassell",
    "countyname":"Los Angeles",
    "stateabbr":"CA",
    "latitude":34.10598,
    "longitude":-118.229781
  },
  {
    "zipcode":90065,
    "cityname":"Glassell Park",
    "countyname":"Los Angeles",
    "stateabbr":"CA",
    "latitude":34.10598,
    "longitude":-118.229781
  },
  {
    "zipcode":90065,
    "cityname":"Los Angeles",
    "countyname":"Los Angeles",
    "stateabbr":"CA",
    "latitude":34.10598,
    "longitude":-118.229781
  },
  {
    "zipcode":90066,
    "cityname":"Los Angeles",
    "countyname":"Los Angeles",
    "stateabbr":"CA",
    "latitude":33.993713,
    "longitude":-118.42832
  },
  {
    "zipcode":90066,
    "cityname":"Mar Vista",
    "countyname":"Los Angeles",
    "stateabbr":"CA",
    "latitude":33.993713,
    "longitude":-118.42832
  },
  {
    "zipcode":90067,
    "cityname":"Century City",
    "countyname":"Los Angeles",
    "stateabbr":"CA",
    "latitude":34.058123,
    "longitude":-118.416403
  },
  {
    "zipcode":90067,
    "cityname":"Los Angeles",
    "countyname":"Los Angeles",
    "stateabbr":"CA",
    "latitude":34.058123,
    "longitude":-118.416403
  },
  {
    "zipcode":90068,
    "cityname":"Hollywood",
    "countyname":"Los Angeles",
    "stateabbr":"CA",
    "latitude":34.120733,
    "longitude":-118.335397
  },
  {
    "zipcode":90068,
    "cityname":"Los Angeles",
    "countyname":"Los Angeles",
    "stateabbr":"CA",
    "latitude":34.120733,
    "longitude":-118.335397
  },
  {
    "zipcode":90069,
    "cityname":"Los Angeles",
    "countyname":"Los Angeles",
    "stateabbr":"CA",
    "latitude":34.091537,
    "longitude":-118.38202
  },
  {
    "zipcode":90069,
    "cityname":"W Hollywood",
    "countyname":"Los Angeles",
    "stateabbr":"CA",
    "latitude":34.091537,
    "longitude":-118.38202
  },
  {
    "zipcode":90069,
    "cityname":"West Hollywood",
    "countyname":"Los Angeles",
    "stateabbr":"CA",
    "latitude":34.091537,
    "longitude":-118.38202
  },
  {
    "zipcode":90070,
    "cityname":"Los Angeles",
    "countyname":"Los Angeles",
    "stateabbr":"CA",
    "latitude":34.06244,
    "longitude":-118.310436
  },
  {
    "zipcode":90071,
    "cityname":"Arco",
    "countyname":"Los Angeles",
    "stateabbr":"CA",
    "latitude":34.053598,
    "longitude":-118.255851
  },
  {
    "zipcode":90071,
    "cityname":"Arco-Plaza",
    "countyname":"Los Angeles",
    "stateabbr":"CA",
    "latitude":34.053598,
    "longitude":-118.255851
  },
  {
    "zipcode":90071,
    "cityname":"Los Angeles",
    "countyname":"Los Angeles",
    "stateabbr":"CA",
    "latitude":34.053598,
    "longitude":-118.255851
  },
  {
    "zipcode":90072,
    "cityname":"Los Angeles",
    "countyname":"Los Angeles",
    "stateabbr":"CA",
    "latitude":34.097188,
    "longitude":-118.309018
  },
  {
    "zipcode":90072,
    "cityname":"Santa Western",
    "countyname":"Los Angeles",
    "stateabbr":"CA",
    "latitude":34.097188,
    "longitude":-118.309018
  },
  {
    "zipcode":90073,
    "cityname":"Los Angeles",
    "countyname":"Los Angeles",
    "stateabbr":"CA",
    "latitude":34.052501,
    "longitude":-118.455227
  },
  {
    "zipcode":90073,
    "cityname":"Veterans Adm",
    "countyname":"Los Angeles",
    "stateabbr":"CA",
    "latitude":34.052501,
    "longitude":-118.455227
  },
  {
    "zipcode":90073,
    "cityname":"Veterans Admin",
    "countyname":"Los Angeles",
    "stateabbr":"CA",
    "latitude":34.052501,
    "longitude":-118.455227
  },
  {
    "zipcode":90073,
    "cityname":"Veterans Administration",
    "countyname":"Los Angeles",
    "stateabbr":"CA",
    "latitude":34.052501,
    "longitude":-118.455227
  },
  {
    "zipcode":90073,
    "cityname":"Veterans Admn",
    "countyname":"Los Angeles",
    "stateabbr":"CA",
    "latitude":34.052501,
    "longitude":-118.455227
  },
  {
    "zipcode":90074,
    "cityname":"Bank of America",
    "countyname":"Los Angeles",
    "stateabbr":"CA",
    "latitude":34.052583,
    "longitude":-118.26801
  },
  {
    "zipcode":90074,
    "cityname":"Los Angeles",
    "countyname":"Los Angeles",
    "stateabbr":"CA",
    "latitude":34.052583,
    "longitude":-118.26801
  },
  {
    "zipcode":90075,
    "cityname":"Los Angeles",
    "countyname":"Los Angeles",
    "stateabbr":"CA",
    "latitude":34.064493,
    "longitude":-118.309555
  },
  {
    "zipcode":90076,
    "cityname":"Los Angeles",
    "countyname":"Los Angeles",
    "stateabbr":"CA",
    "latitude":34.062531,
    "longitude":-118.308835
  },
  {
    "zipcode":90077,
    "cityname":"Barrington",
    "countyname":"Los Angeles",
    "stateabbr":"CA",
    "latitude":34.101509,
    "longitude":-118.452396
  },
  {
    "zipcode":90077,
    "cityname":"Los Angeles",
    "countyname":"Los Angeles",
    "stateabbr":"CA",
    "latitude":34.101509,
    "longitude":-118.452396
  },
  {
    "zipcode":90078,
    "cityname":"Hollywood",
    "countyname":"Los Angeles",
    "stateabbr":"CA",
    "latitude":34.099648,
    "longitude":-118.328037
  },
  {
    "zipcode":90078,
    "cityname":"Los Angeles",
    "countyname":"Los Angeles",
    "stateabbr":"CA",
    "latitude":34.099648,
    "longitude":-118.328037
  },
  {
    "zipcode":90079,
    "cityname":"Los Angeles",
    "countyname":"Los Angeles",
    "stateabbr":"CA",
    "latitude":34.038986,
    "longitude":-118.256235
  },
  {
    "zipcode":90079,
    "cityname":"Textile Boxes",
    "countyname":"Los Angeles",
    "stateabbr":"CA",
    "latitude":34.038986,
    "longitude":-118.256235
  },
  {
    "zipcode":90080,
    "cityname":"Los Angeles",
    "countyname":"Los Angeles",
    "stateabbr":"CA",
    "latitude":33.954771,
    "longitude":-118.396089
  },
  {
    "zipcode":90081,
    "cityname":"Los Angeles",
    "countyname":"Los Angeles",
    "stateabbr":"CA",
    "latitude":34.057006,
    "longitude":-118.26656
  },
  {
    "zipcode":90082,
    "cityname":"Los Angeles",
    "countyname":"Los Angeles",
    "stateabbr":"CA",
    "latitude":34.000545,
    "longitude":-118.279071
  },
  {
    "zipcode":90083,
    "cityname":"Los Angeles",
    "countyname":"Los Angeles",
    "stateabbr":"CA",
    "latitude":33.954859,
    "longitude":-118.400826
  },
  {
    "zipcode":90084,
    "cityname":"Los Angeles",
    "countyname":"Los Angeles",
    "stateabbr":"CA",
    "latitude":34.056524,
    "longitude":-118.265252
  },
  {
    "zipcode":90086,
    "cityname":"Los Angeles",
    "countyname":"Los Angeles",
    "stateabbr":"CA",
    "latitude":34.066364,
    "longitude":-118.239719
  },
  {
    "zipcode":90087,
    "cityname":"Los Angeles",
    "countyname":"Los Angeles",
    "stateabbr":"CA",
    "latitude":34.064384,
    "longitude":-118.240662
  },
  {
    "zipcode":90088,
    "cityname":"Los Angeles",
    "countyname":"Los Angeles",
    "stateabbr":"CA",
    "latitude":34.055128,
    "longitude":-118.261962
  },
  {
    "zipcode":90089,
    "cityname":"Los Angeles",
    "countyname":"Los Angeles",
    "stateabbr":"CA",
    "latitude":34.017658,
    "longitude":-118.284157
  },
  {
    "zipcode":90089,
    "cityname":"University of Southern Ca",
    "countyname":"Los Angeles",
    "stateabbr":"CA",
    "latitude":34.017658,
    "longitude":-118.284157
  },
  {
    "zipcode":90091,
    "cityname":"Commerce",
    "countyname":"Los Angeles",
    "stateabbr":"CA",
    "latitude":33.989658,
    "longitude":-118.149153
  },
  {
    "zipcode":90091,
    "cityname":"Cty of Cmmrce",
    "countyname":"Los Angeles",
    "stateabbr":"CA",
    "latitude":33.989658,
    "longitude":-118.149153
  },
  {
    "zipcode":90091,
    "cityname":"Los Angeles",
    "countyname":"Los Angeles",
    "stateabbr":"CA",
    "latitude":33.989658,
    "longitude":-118.149153
  },
  {
    "zipcode":90093,
    "cityname":"Los Angeles",
    "countyname":"Los Angeles",
    "stateabbr":"CA",
    "latitude":34.098083,
    "longitude":-118.3364
  },
  {
    "zipcode":90094,
    "cityname":"Los Angeles",
    "countyname":"Los Angeles",
    "stateabbr":"CA",
    "latitude":33.974553,
    "longitude":-118.425643
  },
  {
    "zipcode":90094,
    "cityname":"Playa Vista",
    "countyname":"Los Angeles",
    "stateabbr":"CA",
    "latitude":33.974553,
    "longitude":-118.425643
  },
  {
    "zipcode":90095,
    "cityname":"Los Angeles",
    "countyname":"Los Angeles",
    "stateabbr":"CA",
    "latitude":34.070199,
    "longitude":-118.45102
  },
  {
    "zipcode":90095,
    "cityname":"UCLA",
    "countyname":"Los Angeles",
    "stateabbr":"CA",
    "latitude":34.070199,
    "longitude":-118.45102
  },
  {
    "zipcode":90096,
    "cityname":"Los Angeles",
    "countyname":"Los Angeles",
    "stateabbr":"CA",
    "latitude":33.967004,
    "longitude":-118.172186
  },
  {
    "zipcode":90096,
    "cityname":"Shared Firm Zip Code",
    "countyname":"Los Angeles",
    "stateabbr":"CA",
    "latitude":33.967004,
    "longitude":-118.172186
  },
  {
    "zipcode":90099,
    "cityname":"Bar Code Term Annex",
    "countyname":"Los Angeles",
    "stateabbr":"CA",
    "latitude":34.062936,
    "longitude":-118.236227
  },
  {
    "zipcode":90099,
    "cityname":"Los Angeles",
    "countyname":"Los Angeles",
    "stateabbr":"CA",
    "latitude":34.062936,
    "longitude":-118.236227
  },
  {
    "zipcode":90101,
    "cityname":"Bulk Mail Center",
    "countyname":"Los Angeles",
    "stateabbr":"CA",
    "latitude":33.995072,
    "longitude":-118.164164
  },
  {
    "zipcode":90101,
    "cityname":"LA",
    "countyname":"Los Angeles",
    "stateabbr":"CA",
    "latitude":33.995072,
    "longitude":-118.164164
  },
  {
    "zipcode":90101,
    "cityname":"Los Angeles",
    "countyname":"Los Angeles",
    "stateabbr":"CA",
    "latitude":33.995072,
    "longitude":-118.164164
  },
  {
    "zipcode":90102,
    "cityname":"Brylane",
    "countyname":"Los Angeles",
    "stateabbr":"CA",
    "latitude":34.018704,
    "longitude":-118.203253
  },
  {
    "zipcode":90102,
    "cityname":"Los Angeles",
    "countyname":"Los Angeles",
    "stateabbr":"CA",
    "latitude":34.018704,
    "longitude":-118.203253
  },
  {
    "zipcode":90103,
    "cityname":"Los Angeles",
    "countyname":"Los Angeles",
    "stateabbr":"CA",
    "latitude":33.995053,
    "longitude":-118.163717
  },
  {
    "zipcode":90103,
    "cityname":"Rodale Press",
    "countyname":"Los Angeles",
    "stateabbr":"CA",
    "latitude":33.995053,
    "longitude":-118.163717
  },
  {
    "zipcode":90189,
    "cityname":"Citibank",
    "countyname":"Los Angeles",
    "stateabbr":"CA",
    "latitude":34.051596,
    "longitude":-118.239035
  },
  {
    "zipcode":90189,
    "cityname":"Los Angeles",
    "countyname":"Los Angeles",
    "stateabbr":"CA",
    "latitude":34.051596,
    "longitude":-118.239035
  },
  {
    "zipcode":90201,
    "cityname":"Bell",
    "countyname":"Los Angeles",
    "stateabbr":"CA",
    "latitude":33.969157,
    "longitude":-118.172903
  },
  {
    "zipcode":90201,
    "cityname":"Bell Gardens",
    "countyname":"Los Angeles",
    "stateabbr":"CA",
    "latitude":33.969157,
    "longitude":-118.172903
  },
  {
    "zipcode":90201,
    "cityname":"Cudahy",
    "countyname":"Los Angeles",
    "stateabbr":"CA",
    "latitude":33.969157,
    "longitude":-118.172903
  },
  {
    "zipcode":90202,
    "cityname":"Bell",
    "countyname":"Los Angeles",
    "stateabbr":"CA",
    "latitude":33.969924,
    "longitude":-118.152353
  },
  {
    "zipcode":90202,
    "cityname":"Bell Gardens",
    "countyname":"Los Angeles",
    "stateabbr":"CA",
    "latitude":33.969924,
    "longitude":-118.152353
  },
  {
    "zipcode":90209,
    "cityname":"Beverly Hills",
    "countyname":"Los Angeles",
    "stateabbr":"CA",
    "latitude":34.071996,
    "longitude":-118.39142
  },
  {
    "zipcode":90210,
    "cityname":"Beverly Hills",
    "countyname":"Los Angeles",
    "stateabbr":"CA",
    "latitude":34.096629,
    "longitude":-118.412426
  },
  {
    "zipcode":90211,
    "cityname":"Beverly Hills",
    "countyname":"Los Angeles",
    "stateabbr":"CA",
    "latitude":34.062232,
    "longitude":-118.381514
  },
  {
    "zipcode":90212,
    "cityname":"Beverly Hills",
    "countyname":"Los Angeles",
    "stateabbr":"CA",
    "latitude":34.061673,
    "longitude":-118.400135
  },
  {
    "zipcode":90213,
    "cityname":"Beverly Hills",
    "countyname":"Los Angeles",
    "stateabbr":"CA",
    "latitude":34.054812,
    "longitude":-118.404164
  },
  {
    "zipcode":90220,
    "cityname":"Compton",
    "countyname":"Los Angeles",
    "stateabbr":"CA",
    "latitude":33.890694,
    "longitude":-118.239135
  },
  {
    "zipcode":90220,
    "cityname":"Crystal City",
    "countyname":"Los Angeles",
    "stateabbr":"CA",
    "latitude":33.890694,
    "longitude":-118.239135
  },
  {
    "zipcode":90220,
    "cityname":"Rancho Dominguez",
    "countyname":"Los Angeles",
    "stateabbr":"CA",
    "latitude":33.890694,
    "longitude":-118.239135
  },
  {
    "zipcode":90220,
    "cityname":"Rncho Domingz",
    "countyname":"Los Angeles",
    "stateabbr":"CA",
    "latitude":33.890694,
    "longitude":-118.239135
  },
  {
    "zipcode":90221,
    "cityname":"Compton",
    "countyname":"Los Angeles",
    "stateabbr":"CA",
    "latitude":33.87954,
    "longitude":-118.20054
  },
  {
    "zipcode":90221,
    "cityname":"E Rncho Dmngz",
    "countyname":"Los Angeles",
    "stateabbr":"CA",
    "latitude":33.87954,
    "longitude":-118.20054
  },
  {
    "zipcode":90221,
    "cityname":"East Rancho Dominguez",
    "countyname":"Los Angeles",
    "stateabbr":"CA",
    "latitude":33.87954,
    "longitude":-118.20054
  },
  {
    "zipcode":90222,
    "cityname":"Compton",
    "countyname":"Los Angeles",
    "stateabbr":"CA",
    "latitude":33.911837,
    "longitude":-118.235008
  },
  {
    "zipcode":90222,
    "cityname":"Rosewood",
    "countyname":"Los Angeles",
    "stateabbr":"CA",
    "latitude":33.911837,
    "longitude":-118.235008
  },
  {
    "zipcode":90223,
    "cityname":"Compton",
    "countyname":"Los Angeles",
    "stateabbr":"CA",
    "latitude":33.892498,
    "longitude":-118.226452
  },
  {
    "zipcode":90224,
    "cityname":"Compton",
    "countyname":"Los Angeles",
    "stateabbr":"CA",
    "latitude":33.871965,
    "longitude":-118.266771
  },
  {
    "zipcode":90224,
    "cityname":"Rancho Dominguez",
    "countyname":"Los Angeles",
    "stateabbr":"CA",
    "latitude":33.871965,
    "longitude":-118.266771
  },
  {
    "zipcode":90224,
    "cityname":"Rncho Domingz",
    "countyname":"Los Angeles",
    "stateabbr":"CA",
    "latitude":33.871965,
    "longitude":-118.266771
  },
  {
    "zipcode":90230,
    "cityname":"Culver City",
    "countyname":"Los Angeles",
    "stateabbr":"CA",
    "latitude":34.001758,
    "longitude":-118.394799
  },
  {
    "zipcode":90230,
    "cityname":"Los Angeles",
    "countyname":"Los Angeles",
    "stateabbr":"CA",
    "latitude":34.001758,
    "longitude":-118.394799
  },
  {
    "zipcode":90231,
    "cityname":"Culver City",
    "countyname":"Los Angeles",
    "stateabbr":"CA",
    "latitude":33.999494,
    "longitude":-118.391303
  },
  {
    "zipcode":90232,
    "cityname":"Culver City",
    "countyname":"Los Angeles",
    "stateabbr":"CA",
    "latitude":34.014991,
    "longitude":-118.394848
  },
  {
    "zipcode":90233,
    "cityname":"Culver City",
    "countyname":"Los Angeles",
    "stateabbr":"CA",
    "latitude":33.983732,
    "longitude":-118.391412
  },
  {
    "zipcode":90239,
    "cityname":"Downey",
    "countyname":"Los Angeles",
    "stateabbr":"CA",
    "latitude":33.932418,
    "longitude":-118.112837
  },
  {
    "zipcode":90240,
    "cityname":"Downey",
    "countyname":"Los Angeles",
    "stateabbr":"CA",
    "latitude":33.95461,
    "longitude":-118.116688
  },
  {
    "zipcode":90241,
    "cityname":"Downey",
    "countyname":"Los Angeles",
    "stateabbr":"CA",
    "latitude":33.940169,
    "longitude":-118.129391
  },
  {
    "zipcode":90242,
    "cityname":"Downey",
    "countyname":"Los Angeles",
    "stateabbr":"CA",
    "latitude":33.924064,
    "longitude":-118.145732
  },
  {
    "zipcode":90245,
    "cityname":"El Segundo",
    "countyname":"Los Angeles",
    "stateabbr":"CA",
    "latitude":33.923798,
    "longitude":-118.405527
  },
  {
    "zipcode":90247,
    "cityname":"Gardena",
    "countyname":"Los Angeles",
    "stateabbr":"CA",
    "latitude":33.888193,
    "longitude":-118.295204
  },
  {
    "zipcode":90248,
    "cityname":"Gardena",
    "countyname":"Los Angeles",
    "stateabbr":"CA",
    "latitude":33.879226,
    "longitude":-118.283613
  },
  {
    "zipcode":90249,
    "cityname":"Gardena",
    "countyname":"Los Angeles",
    "stateabbr":"CA",
    "latitude":33.897921,
    "longitude":-118.318018
  },
  {
    "zipcode":90250,
    "cityname":"Hawthorne",
    "countyname":"Los Angeles",
    "stateabbr":"CA",
    "latitude":33.9153,
    "longitude":-118.351309
  },
  {
    "zipcode":90250,
    "cityname":"Holly Park",
    "countyname":"Los Angeles",
    "stateabbr":"CA",
    "latitude":33.9153,
    "longitude":-118.351309
  },
  {
    "zipcode":90250,
    "cityname":"Hollyglen",
    "countyname":"Los Angeles",
    "stateabbr":"CA",
    "latitude":33.9153,
    "longitude":-118.351309
  },
  {
    "zipcode":90251,
    "cityname":"Hawthorne",
    "countyname":"Los Angeles",
    "stateabbr":"CA",
    "latitude":33.916941,
    "longitude":-118.359436
  },
  {
    "zipcode":90254,
    "cityname":"Hermosa Beach",
    "countyname":"Los Angeles",
    "stateabbr":"CA",
    "latitude":33.867406,
    "longitude":-118.397481
  },
  {
    "zipcode":90255,
    "cityname":"Huntington Park",
    "countyname":"Los Angeles",
    "stateabbr":"CA",
    "latitude":33.980311,
    "longitude":-118.209874
  },
  {
    "zipcode":90255,
    "cityname":"Huntington Pk",
    "countyname":"Los Angeles",
    "stateabbr":"CA",
    "latitude":33.980311,
    "longitude":-118.209874
  },
  {
    "zipcode":90255,
    "cityname":"Walnut Park",
    "countyname":"Los Angeles",
    "stateabbr":"CA",
    "latitude":33.980311,
    "longitude":-118.209874
  },
  {
    "zipcode":90260,
    "cityname":"Lawndale",
    "countyname":"Los Angeles",
    "stateabbr":"CA",
    "latitude":33.888172,
    "longitude":-118.348328
  },
  {
    "zipcode":90261,
    "cityname":"Lawndale",
    "countyname":"Los Angeles",
    "stateabbr":"CA",
    "latitude":33.88958,
    "longitude":-118.352749
  },
  {
    "zipcode":90262,
    "cityname":"Lynwood",
    "countyname":"Los Angeles",
    "stateabbr":"CA",
    "latitude":33.925084,
    "longitude":-118.198182
  },
  {
    "zipcode":90263,
    "cityname":"Malibu",
    "countyname":"Los Angeles",
    "stateabbr":"CA",
    "latitude":34.006202,
    "longitude":-118.810015
  },
  {
    "zipcode":90264,
    "cityname":"Malibu",
    "countyname":"Los Angeles",
    "stateabbr":"CA",
    "latitude":34.043513,
    "longitude":-118.771042
  },
  {
    "zipcode":90265,
    "cityname":"Malibu",
    "countyname":"Los Angeles",
    "stateabbr":"CA",
    "latitude":34.044755,
    "longitude":-118.75538
  },
  {
    "zipcode":90266,
    "cityname":"Manhattan Bch",
    "countyname":"Los Angeles",
    "stateabbr":"CA",
    "latitude":33.889584,
    "longitude":-118.39902
  },
  {
    "zipcode":90266,
    "cityname":"Manhattan Beach",
    "countyname":"Los Angeles",
    "stateabbr":"CA",
    "latitude":33.889584,
    "longitude":-118.39902
  },
  {
    "zipcode":90267,
    "cityname":"Manhattan Bch",
    "countyname":"Los Angeles",
    "stateabbr":"CA",
    "latitude":33.874322,
    "longitude":-118.39546
  },
  {
    "zipcode":90267,
    "cityname":"Manhattan Beach",
    "countyname":"Los Angeles",
    "stateabbr":"CA",
    "latitude":33.874322,
    "longitude":-118.39546
  },
  {
    "zipcode":90270,
    "cityname":"Bell",
    "countyname":"Los Angeles",
    "stateabbr":"CA",
    "latitude":33.9775,
    "longitude":-118.186111
  },
  {
    "zipcode":90270,
    "cityname":"Maywood",
    "countyname":"Los Angeles",
    "stateabbr":"CA",
    "latitude":33.9775,
    "longitude":-118.186111
  },
  {
    "zipcode":90272,
    "cityname":"Pacific Palisades",
    "countyname":"Los Angeles",
    "stateabbr":"CA",
    "latitude":34.053275,
    "longitude":-118.534568
  },
  {
    "zipcode":90272,
    "cityname":"Pacific Plsds",
    "countyname":"Los Angeles",
    "stateabbr":"CA",
    "latitude":34.053275,
    "longitude":-118.534568
  },
  {
    "zipcode":90274,
    "cityname":"Palos Verdes Estates",
    "countyname":"Los Angeles",
    "stateabbr":"CA",
    "latitude":33.772826,
    "longitude":-118.370775
  },
  {
    "zipcode":90274,
    "cityname":"Palos Verdes Peninsula",
    "countyname":"Los Angeles",
    "stateabbr":"CA",
    "latitude":33.772826,
    "longitude":-118.370775
  },
  {
    "zipcode":90274,
    "cityname":"Pls Vrds Est",
    "countyname":"Los Angeles",
    "stateabbr":"CA",
    "latitude":33.772826,
    "longitude":-118.370775
  },
  {
    "zipcode":90274,
    "cityname":"Pls Vrds Pnsl",
    "countyname":"Los Angeles",
    "stateabbr":"CA",
    "latitude":33.772826,
    "longitude":-118.370775
  },
  {
    "zipcode":90274,
    "cityname":"Rllng Hls Est",
    "countyname":"Los Angeles",
    "stateabbr":"CA",
    "latitude":33.772826,
    "longitude":-118.370775
  },
  {
    "zipcode":90274,
    "cityname":"Rolling Hills",
    "countyname":"Los Angeles",
    "stateabbr":"CA",
    "latitude":33.772826,
    "longitude":-118.370775
  },
  {
    "zipcode":90274,
    "cityname":"Rolling Hills Estates",
    "countyname":"Los Angeles",
    "stateabbr":"CA",
    "latitude":33.772826,
    "longitude":-118.370775
  },
  {
    "zipcode":90275,
    "cityname":"Palos Verdes Estates",
    "countyname":"Los Angeles",
    "stateabbr":"CA",
    "latitude":33.766667,
    "longitude":-118.366667
  },
  {
    "zipcode":90275,
    "cityname":"Palos Verdes Peninsula",
    "countyname":"Los Angeles",
    "stateabbr":"CA",
    "latitude":33.766667,
    "longitude":-118.366667
  },
  {
    "zipcode":90275,
    "cityname":"Pls Vrds Est",
    "countyname":"Los Angeles",
    "stateabbr":"CA",
    "latitude":33.766667,
    "longitude":-118.366667
  },
  {
    "zipcode":90275,
    "cityname":"Pls Vrds Pnsl",
    "countyname":"Los Angeles",
    "stateabbr":"CA",
    "latitude":33.766667,
    "longitude":-118.366667
  },
  {
    "zipcode":90275,
    "cityname":"Rancho Palos Verdes",
    "countyname":"Los Angeles",
    "stateabbr":"CA",
    "latitude":33.766667,
    "longitude":-118.366667
  },
  {
    "zipcode":90275,
    "cityname":"Rch Palos Vrd",
    "countyname":"Los Angeles",
    "stateabbr":"CA",
    "latitude":33.766667,
    "longitude":-118.366667
  },
  {
    "zipcode":90275,
    "cityname":"Rllng Hls Est",
    "countyname":"Los Angeles",
    "stateabbr":"CA",
    "latitude":33.766667,
    "longitude":-118.366667
  },
  {
    "zipcode":90275,
    "cityname":"Rolling Hills Estates",
    "countyname":"Los Angeles",
    "stateabbr":"CA",
    "latitude":33.766667,
    "longitude":-118.366667
  },
  {
    "zipcode":90277,
    "cityname":"Redondo Beach",
    "countyname":"Los Angeles",
    "stateabbr":"CA",
    "latitude":33.832658,
    "longitude":-118.38015
  },
  {
    "zipcode":90278,
    "cityname":"Redondo Beach",
    "countyname":"Los Angeles",
    "stateabbr":"CA",
    "latitude":33.871269,
    "longitude":-118.371584
  },
  {
    "zipcode":90280,
    "cityname":"South Gate",
    "countyname":"Los Angeles",
    "stateabbr":"CA",
    "latitude":33.941262,
    "longitude":-118.193702
  },
  {
    "zipcode":90290,
    "cityname":"Topanga",
    "countyname":"Los Angeles",
    "stateabbr":"CA",
    "latitude":34.104396,
    "longitude":-118.604094
  },
  {
    "zipcode":90291,
    "cityname":"Marina del Rey",
    "countyname":"Los Angeles",
    "stateabbr":"CA",
    "latitude":33.993348,
    "longitude":-118.465075
  },
  {
    "zipcode":90291,
    "cityname":"Playa del Rey",
    "countyname":"Los Angeles",
    "stateabbr":"CA",
    "latitude":33.993348,
    "longitude":-118.465075
  },
  {
    "zipcode":90291,
    "cityname":"Venice",
    "countyname":"Los Angeles",
    "stateabbr":"CA",
    "latitude":33.993348,
    "longitude":-118.465075
  },
  {
    "zipcode":90292,
    "cityname":"Marina del Rey",
    "countyname":"Los Angeles",
    "stateabbr":"CA",
    "latitude":33.98551,
    "longitude":-118.45318
  },
  {
    "zipcode":90292,
    "cityname":"Marina dl Rey",
    "countyname":"Los Angeles",
    "stateabbr":"CA",
    "latitude":33.98551,
    "longitude":-118.45318
  },
  {
    "zipcode":90292,
    "cityname":"Venice",
    "countyname":"Los Angeles",
    "stateabbr":"CA",
    "latitude":33.98551,
    "longitude":-118.45318
  },
  {
    "zipcode":90293,
    "cityname":"Playa del Rey",
    "countyname":"Los Angeles",
    "stateabbr":"CA",
    "latitude":33.990833,
    "longitude":-118.459167
  },
  {
    "zipcode":90293,
    "cityname":"Venice",
    "countyname":"Los Angeles",
    "stateabbr":"CA",
    "latitude":33.990833,
    "longitude":-118.459167
  },
  {
    "zipcode":90294,
    "cityname":"Venice",
    "countyname":"Los Angeles",
    "stateabbr":"CA",
    "latitude":33.986206,
    "longitude":-118.468275
  },
  {
    "zipcode":90295,
    "cityname":"Marina del Rey",
    "countyname":"Los Angeles",
    "stateabbr":"CA",
    "latitude":33.980879,
    "longitude":-118.438136
  },
  {
    "zipcode":90295,
    "cityname":"Marina dl Rey",
    "countyname":"Los Angeles",
    "stateabbr":"CA",
    "latitude":33.980879,
    "longitude":-118.438136
  },
  {
    "zipcode":90295,
    "cityname":"Venice",
    "countyname":"Los Angeles",
    "stateabbr":"CA",
    "latitude":33.980879,
    "longitude":-118.438136
  },
  {
    "zipcode":90296,
    "cityname":"Playa del Rey",
    "countyname":"Los Angeles",
    "stateabbr":"CA",
    "latitude":33.956096,
    "longitude":-118.449853
  },
  {
    "zipcode":90296,
    "cityname":"Venice",
    "countyname":"Los Angeles",
    "stateabbr":"CA",
    "latitude":33.956096,
    "longitude":-118.449853
  },
  {
    "zipcode":90301,
    "cityname":"Inglewood",
    "countyname":"Los Angeles",
    "stateabbr":"CA",
    "latitude":33.958998,
    "longitude":-118.350254
  },
  {
    "zipcode":90302,
    "cityname":"Inglewood",
    "countyname":"Los Angeles",
    "stateabbr":"CA",
    "latitude":33.975295,
    "longitude":-118.354145
  },
  {
    "zipcode":90303,
    "cityname":"Inglewood",
    "countyname":"Los Angeles",
    "stateabbr":"CA",
    "latitude":33.934314,
    "longitude":-118.325571
  },
  {
    "zipcode":90304,
    "cityname":"Inglewood",
    "countyname":"Los Angeles",
    "stateabbr":"CA",
    "latitude":33.935693,
    "longitude":-118.355284
  },
  {
    "zipcode":90304,
    "cityname":"Lennox",
    "countyname":"Los Angeles",
    "stateabbr":"CA",
    "latitude":33.935693,
    "longitude":-118.355284
  },
  {
    "zipcode":90305,
    "cityname":"Inglewood",
    "countyname":"Los Angeles",
    "stateabbr":"CA",
    "latitude":33.960447,
    "longitude":-118.331386
  },
  {
    "zipcode":90306,
    "cityname":"Inglewood",
    "countyname":"Los Angeles",
    "stateabbr":"CA",
    "latitude":33.960821,
    "longitude":-118.35013
  },
  {
    "zipcode":90307,
    "cityname":"Inglewood",
    "countyname":"Los Angeles",
    "stateabbr":"CA",
    "latitude":33.954677,
    "longitude":-118.373609
  },
  {
    "zipcode":90308,
    "cityname":"Inglewood",
    "countyname":"Los Angeles",
    "stateabbr":"CA",
    "latitude":33.960454,
    "longitude":-118.351465
  },
  {
    "zipcode":90309,
    "cityname":"Inglewood",
    "countyname":"Los Angeles",
    "stateabbr":"CA",
    "latitude":33.973424,
    "longitude":-118.357069
  },
  {
    "zipcode":90310,
    "cityname":"Inglewood",
    "countyname":"Los Angeles",
    "stateabbr":"CA",
    "latitude":33.927761,
    "longitude":-118.319917
  },
  {
    "zipcode":90311,
    "cityname":"Inglewood",
    "countyname":"Los Angeles",
    "stateabbr":"CA",
    "latitude":33.95731,
    "longitude":-118.358381
  },
  {
    "zipcode":90312,
    "cityname":"Inglewood",
    "countyname":"Los Angeles",
    "stateabbr":"CA",
    "latitude":33.960629,
    "longitude":-118.350216
  },
  {
    "zipcode":90313,
    "cityname":"General Telephone",
    "countyname":"Los Angeles",
    "stateabbr":"CA",
    "latitude":33.958341,
    "longitude":-118.352457
  },
  {
    "zipcode":90313,
    "cityname":"Inglewood",
    "countyname":"Los Angeles",
    "stateabbr":"CA",
    "latitude":33.958341,
    "longitude":-118.352457
  },
  {
    "zipcode":90397,
    "cityname":"Inglewood",
    "countyname":"Los Angeles",
    "stateabbr":"CA",
    "latitude":33.973575,
    "longitude":-118.424112
  },
  {
    "zipcode":90397,
    "cityname":"Shared Firm Zip Code",
    "countyname":"Los Angeles",
    "stateabbr":"CA",
    "latitude":33.973575,
    "longitude":-118.424112
  },
  {
    "zipcode":90398,
    "cityname":"Electronic Data Systems Inc",
    "countyname":"Los Angeles",
    "stateabbr":"CA",
    "latitude":33.954366,
    "longitude":-118.344842
  },
  {
    "zipcode":90398,
    "cityname":"Inglewood",
    "countyname":"Los Angeles",
    "stateabbr":"CA",
    "latitude":33.954366,
    "longitude":-118.344842
  },
  {
    "zipcode":90401,
    "cityname":"Santa Monica",
    "countyname":"Los Angeles",
    "stateabbr":"CA",
    "latitude":34.01663,
    "longitude":-118.495341
  },
  {
    "zipcode":90402,
    "cityname":"Santa Monica",
    "countyname":"Los Angeles",
    "stateabbr":"CA",
    "latitude":34.035904,
    "longitude":-118.502559
  },
  {
    "zipcode":90403,
    "cityname":"Santa Monica",
    "countyname":"Los Angeles",
    "stateabbr":"CA",
    "latitude":34.029923,
    "longitude":-118.490616
  },
  {
    "zipcode":90404,
    "cityname":"Santa Monica",
    "countyname":"Los Angeles",
    "stateabbr":"CA",
    "latitude":34.028496,
    "longitude":-118.470151
  },
  {
    "zipcode":90405,
    "cityname":"Santa Monica",
    "countyname":"Los Angeles",
    "stateabbr":"CA",
    "latitude":34.007914,
    "longitude":-118.470161
  },
  {
    "zipcode":90406,
    "cityname":"Santa Monica",
    "countyname":"Los Angeles",
    "stateabbr":"CA",
    "latitude":34.018176,
    "longitude":-118.497198
  },
  {
    "zipcode":90407,
    "cityname":"Santa Monica",
    "countyname":"Los Angeles",
    "stateabbr":"CA",
    "latitude":34.013225,
    "longitude":-118.49306
  },
  {
    "zipcode":90408,
    "cityname":"Santa Monica",
    "countyname":"Los Angeles",
    "stateabbr":"CA",
    "latitude":34.026164,
    "longitude":-118.491968
  },
  {
    "zipcode":90409,
    "cityname":"Santa Monica",
    "countyname":"Los Angeles",
    "stateabbr":"CA",
    "latitude":34.003022,
    "longitude":-118.485621
  },
  {
    "zipcode":90410,
    "cityname":"Santa Monica",
    "countyname":"Los Angeles",
    "stateabbr":"CA",
    "latitude":34.014649,
    "longitude":-118.4674
  },
  {
    "zipcode":90411,
    "cityname":"Santa Monica",
    "countyname":"Los Angeles",
    "stateabbr":"CA",
    "latitude":34.012451,
    "longitude":-118.471282
  },
  {
    "zipcode":90501,
    "cityname":"Torrance",
    "countyname":"Los Angeles",
    "stateabbr":"CA",
    "latitude":33.829914,
    "longitude":-118.314527
  },
  {
    "zipcode":90502,
    "cityname":"Torrance",
    "countyname":"Los Angeles",
    "stateabbr":"CA",
    "latitude":33.837971,
    "longitude":-118.293025
  },
  {
    "zipcode":90503,
    "cityname":"Torrance",
    "countyname":"Los Angeles",
    "stateabbr":"CA",
    "latitude":33.842791,
    "longitude":-118.357275
  },
  {
    "zipcode":90504,
    "cityname":"Torrance",
    "countyname":"Los Angeles",
    "stateabbr":"CA",
    "latitude":33.871409,
    "longitude":-118.325688
  },
  {
    "zipcode":90505,
    "cityname":"Torrance",
    "countyname":"Los Angeles",
    "stateabbr":"CA",
    "latitude":33.809221,
    "longitude":-118.349149
  },
  {
    "zipcode":90506,
    "cityname":"Torrance",
    "countyname":"Los Angeles",
    "stateabbr":"CA",
    "latitude":33.885708,
    "longitude":-118.329022
  },
  {
    "zipcode":90507,
    "cityname":"Torrance",
    "countyname":"Los Angeles",
    "stateabbr":"CA",
    "latitude":33.831799,
    "longitude":-118.318215
  },
  {
    "zipcode":90508,
    "cityname":"Torrance",
    "countyname":"Los Angeles",
    "stateabbr":"CA",
    "latitude":33.834595,
    "longitude":-118.315387
  },
  {
    "zipcode":90509,
    "cityname":"Torrance",
    "countyname":"Los Angeles",
    "stateabbr":"CA",
    "latitude":33.844351,
    "longitude":-118.328784
  },
  {
    "zipcode":90510,
    "cityname":"Torrance",
    "countyname":"Los Angeles",
    "stateabbr":"CA",
    "latitude":33.825599,
    "longitude":-118.328416
  },
  {
    "zipcode":90601,
    "cityname":"City Industry",
    "countyname":"Los Angeles",
    "stateabbr":"CA",
    "latitude":34.005998,
    "longitude":-118.032175
  },
  {
    "zipcode":90601,
    "cityname":"City of Industry",
    "countyname":"Los Angeles",
    "stateabbr":"CA",
    "latitude":34.005998,
    "longitude":-118.032175
  },
  {
    "zipcode":90601,
    "cityname":"Whittier",
    "countyname":"Los Angeles",
    "stateabbr":"CA",
    "latitude":34.005998,
    "longitude":-118.032175
  },
  {
    "zipcode":90602,
    "cityname":"Whittier",
    "countyname":"Los Angeles",
    "stateabbr":"CA",
    "latitude":33.973637,
    "longitude":-118.031821
  },
  {
    "zipcode":90603,
    "cityname":"Whittier",
    "countyname":"Los Angeles",
    "stateabbr":"CA",
    "latitude":33.944907,
    "longitude":-117.989049
  },
  {
    "zipcode":90604,
    "cityname":"Whittier",
    "countyname":"Los Angeles",
    "stateabbr":"CA",
    "latitude":33.934784,
    "longitude":-118.022664
  },
  {
    "zipcode":90605,
    "cityname":"Santa Fe Springs",
    "countyname":"Los Angeles",
    "stateabbr":"CA",
    "latitude":33.955629,
    "longitude":-118.026647
  },
  {
    "zipcode":90605,
    "cityname":"Whittier",
    "countyname":"Los Angeles",
    "stateabbr":"CA",
    "latitude":33.955629,
    "longitude":-118.026647
  },
  {
    "zipcode":90606,
    "cityname":"Los Nietos",
    "countyname":"Los Angeles",
    "stateabbr":"CA",
    "latitude":33.980225,
    "longitude":-118.066303
  },
  {
    "zipcode":90606,
    "cityname":"Whittier",
    "countyname":"Los Angeles",
    "stateabbr":"CA",
    "latitude":33.980225,
    "longitude":-118.066303
  },
  {
    "zipcode":90607,
    "cityname":"Whittier",
    "countyname":"Los Angeles",
    "stateabbr":"CA",
    "latitude":33.959614,
    "longitude":-118.026554
  },
  {
    "zipcode":90608,
    "cityname":"Whittier",
    "countyname":"Los Angeles",
    "stateabbr":"CA",
    "latitude":33.979318,
    "longitude":-118.03053
  },
  {
    "zipcode":90609,
    "cityname":"Whittier",
    "countyname":"Los Angeles",
    "stateabbr":"CA",
    "latitude":33.981609,
    "longitude":-118.030546
  },
  {
    "zipcode":90610,
    "cityname":"Los Nietos",
    "countyname":"Los Angeles",
    "stateabbr":"CA",
    "latitude":33.969836,
    "longitude":-118.071934
  },
  {
    "zipcode":90610,
    "cityname":"Whittier",
    "countyname":"Los Angeles",
    "stateabbr":"CA",
    "latitude":33.969836,
    "longitude":-118.071934
  },
  {
    "zipcode":90612,
    "cityname":"Whittier",
    "countyname":"Los Angeles",
    "stateabbr":"CA",
    "latitude":33.968671,
    "longitude":-118.0214
  },
  {
    "zipcode":90612,
    "cityname":"Whittier Asb",
    "countyname":"Los Angeles",
    "stateabbr":"CA",
    "latitude":33.968671,
    "longitude":-118.0214
  },
  {
    "zipcode":90620,
    "cityname":"Buena Park",
    "countyname":"Orange",
    "stateabbr":"CA",
    "latitude":33.843903,
    "longitude":-118.007993
  },
  {
    "zipcode":90621,
    "cityname":"Buena Park",
    "countyname":"Orange",
    "stateabbr":"CA",
    "latitude":33.877168,
    "longitude":-117.989269
  },
  {
    "zipcode":90622,
    "cityname":"Buena Park",
    "countyname":"Orange",
    "stateabbr":"CA",
    "latitude":33.846186,
    "longitude":-118.003132
  },
  {
    "zipcode":90623,
    "cityname":"Buena Park",
    "countyname":"Orange",
    "stateabbr":"CA",
    "latitude":33.849063,
    "longitude":-118.039814
  },
  {
    "zipcode":90623,
    "cityname":"La Palma",
    "countyname":"Orange",
    "stateabbr":"CA",
    "latitude":33.849063,
    "longitude":-118.039814
  },
  {
    "zipcode":90624,
    "cityname":"Buena Park",
    "countyname":"Orange",
    "stateabbr":"CA",
    "latitude":33.858383,
    "longitude":-118.003267
  },
  {
    "zipcode":90630,
    "cityname":"Cypress",
    "countyname":"Orange",
    "stateabbr":"CA",
    "latitude":33.818073,
    "longitude":-118.035677
  },
  {
    "zipcode":90631,
    "cityname":"La Habra",
    "countyname":"Orange",
    "stateabbr":"CA",
    "latitude":33.94104,
    "longitude":-117.95442
  },
  {
    "zipcode":90631,
    "cityname":"La Habra Heights",
    "countyname":"Orange",
    "stateabbr":"CA",
    "latitude":33.94104,
    "longitude":-117.95442
  },
  {
    "zipcode":90631,
    "cityname":"La Habra Hgts",
    "countyname":"Orange",
    "stateabbr":"CA",
    "latitude":33.94104,
    "longitude":-117.95442
  },
  {
    "zipcode":90631,
    "cityname":"La Habra Hts",
    "countyname":"Orange",
    "stateabbr":"CA",
    "latitude":33.94104,
    "longitude":-117.95442
  },
  {
    "zipcode":90632,
    "cityname":"La Habra",
    "countyname":"Orange",
    "stateabbr":"CA",
    "latitude":33.914328,
    "longitude":-117.954717
  },
  {
    "zipcode":90633,
    "cityname":"La Habra",
    "countyname":"Orange",
    "stateabbr":"CA",
    "latitude":33.934534,
    "longitude":-117.945247
  },
  {
    "zipcode":90637,
    "cityname":"La Mirada",
    "countyname":"Los Angeles",
    "stateabbr":"CA",
    "latitude":33.897095,
    "longitude":-118.002372
  },
  {
    "zipcode":90638,
    "cityname":"La Mirada",
    "countyname":"Los Angeles",
    "stateabbr":"CA",
    "latitude":33.906013,
    "longitude":-118.005828
  },
  {
    "zipcode":90638,
    "cityname":"Lamirada",
    "countyname":"Los Angeles",
    "stateabbr":"CA",
    "latitude":33.906013,
    "longitude":-118.005828
  },
  {
    "zipcode":90638,
    "cityname":"Mirada",
    "countyname":"Los Angeles",
    "stateabbr":"CA",
    "latitude":33.906013,
    "longitude":-118.005828
  },
  {
    "zipcode":90639,
    "cityname":"Biola University",
    "countyname":"Los Angeles",
    "stateabbr":"CA",
    "latitude":33.907592,
    "longitude":-118.020573
  },
  {
    "zipcode":90639,
    "cityname":"La Mirada",
    "countyname":"Los Angeles",
    "stateabbr":"CA",
    "latitude":33.907592,
    "longitude":-118.020573
  },
  {
    "zipcode":90640,
    "cityname":"Montebello",
    "countyname":"Los Angeles",
    "stateabbr":"CA",
    "latitude":34.015369,
    "longitude":-118.111726
  },
  {
    "zipcode":90650,
    "cityname":"Norwalk",
    "countyname":"Los Angeles",
    "stateabbr":"CA",
    "latitude":33.908151,
    "longitude":-118.080822
  },
  {
    "zipcode":90651,
    "cityname":"Norwalk",
    "countyname":"Los Angeles",
    "stateabbr":"CA",
    "latitude":33.906859,
    "longitude":-118.076073
  },
  {
    "zipcode":90652,
    "cityname":"Norwalk",
    "countyname":"Los Angeles",
    "stateabbr":"CA",
    "latitude":33.920448,
    "longitude":-118.072097
  },
  {
    "zipcode":90659,
    "cityname":"MW",
    "countyname":"Los Angeles",
    "stateabbr":"CA",
    "latitude":33.904813,
    "longitude":-118.08245
  },
  {
    "zipcode":90659,
    "cityname":"Norwalk",
    "countyname":"Los Angeles",
    "stateabbr":"CA",
    "latitude":33.904813,
    "longitude":-118.08245
  },
  {
    "zipcode":90660,
    "cityname":"Pico Rivera",
    "countyname":"Los Angeles",
    "stateabbr":"CA",
    "latitude":33.988063,
    "longitude":-118.088143
  },
  {
    "zipcode":90661,
    "cityname":"Pico Rivera",
    "countyname":"Los Angeles",
    "stateabbr":"CA",
    "latitude":33.998236,
    "longitude":-118.080655
  },
  {
    "zipcode":90662,
    "cityname":"Pico Rivera",
    "countyname":"Los Angeles",
    "stateabbr":"CA",
    "latitude":33.969412,
    "longitude":-118.098484
  },
  {
    "zipcode":90670,
    "cityname":"Santa Fe Spgs",
    "countyname":"Los Angeles",
    "stateabbr":"CA",
    "latitude":33.935015,
    "longitude":-118.068892
  },
  {
    "zipcode":90670,
    "cityname":"Santa Fe Springs",
    "countyname":"Los Angeles",
    "stateabbr":"CA",
    "latitude":33.935015,
    "longitude":-118.068892
  },
  {
    "zipcode":90671,
    "cityname":"Santa Fe Spgs",
    "countyname":"Los Angeles",
    "stateabbr":"CA",
    "latitude":33.932507,
    "longitude":-118.058491
  },
  {
    "zipcode":90671,
    "cityname":"Santa Fe Springs",
    "countyname":"Los Angeles",
    "stateabbr":"CA",
    "latitude":33.932507,
    "longitude":-118.058491
  },
  {
    "zipcode":90680,
    "cityname":"Stanton",
    "countyname":"Orange",
    "stateabbr":"CA",
    "latitude":33.799083,
    "longitude":-117.995649
  },
  {
    "zipcode":90701,
    "cityname":"Artesia",
    "countyname":"Los Angeles",
    "stateabbr":"CA",
    "latitude":33.869028,
    "longitude":-118.081967
  },
  {
    "zipcode":90701,
    "cityname":"Cerritos",
    "countyname":"Los Angeles",
    "stateabbr":"CA",
    "latitude":33.869028,
    "longitude":-118.081967
  },
  {
    "zipcode":90702,
    "cityname":"Artesia",
    "countyname":"Los Angeles",
    "stateabbr":"CA",
    "latitude":33.863402,
    "longitude":-118.082521
  },
  {
    "zipcode":90703,
    "cityname":"Artesia",
    "countyname":"Los Angeles",
    "stateabbr":"CA",
    "latitude":33.866635,
    "longitude":-118.048458
  },
  {
    "zipcode":90703,
    "cityname":"Cerritos",
    "countyname":"Los Angeles",
    "stateabbr":"CA",
    "latitude":33.866635,
    "longitude":-118.048458
  },
  {
    "zipcode":90704,
    "cityname":"Avalon",
    "countyname":"Los Angeles",
    "stateabbr":"CA",
    "latitude":33.342834,
    "longitude":-118.327634
  },
  {
    "zipcode":90704,
    "cityname":"Catalina",
    "countyname":"Los Angeles",
    "stateabbr":"CA",
    "latitude":33.342834,
    "longitude":-118.327634
  },
  {
    "zipcode":90704,
    "cityname":"Santa Catalina",
    "countyname":"Los Angeles",
    "stateabbr":"CA",
    "latitude":33.342834,
    "longitude":-118.327634
  },
  {
    "zipcode":90706,
    "cityname":"Bellflower",
    "countyname":"Los Angeles",
    "stateabbr":"CA",
    "latitude":33.888756,
    "longitude":-118.128543
  },
  {
    "zipcode":90707,
    "cityname":"Bellflower",
    "countyname":"Los Angeles",
    "stateabbr":"CA",
    "latitude":33.88235,
    "longitude":-118.122206
  },
  {
    "zipcode":90710,
    "cityname":"Harbor City",
    "countyname":"Los Angeles",
    "stateabbr":"CA",
    "latitude":33.800611,
    "longitude":-118.299094
  },
  {
    "zipcode":90711,
    "cityname":"Lakewood",
    "countyname":"Los Angeles",
    "stateabbr":"CA",
    "latitude":33.848941,
    "longitude":-118.146773
  },
  {
    "zipcode":90712,
    "cityname":"Lakewood",
    "countyname":"Los Angeles",
    "stateabbr":"CA",
    "latitude":33.848928,
    "longitude":-118.147102
  },
  {
    "zipcode":90713,
    "cityname":"Lakewood",
    "countyname":"Los Angeles",
    "stateabbr":"CA",
    "latitude":33.851668,
    "longitude":-118.107286
  },
  {
    "zipcode":90714,
    "cityname":"Lakewood",
    "countyname":"Los Angeles",
    "stateabbr":"CA",
    "latitude":33.851492,
    "longitude":-118.136024
  },
  {
    "zipcode":90715,
    "cityname":"Lakewood",
    "countyname":"Los Angeles",
    "stateabbr":"CA",
    "latitude":33.843382,
    "longitude":-118.076802
  },
  {
    "zipcode":90716,
    "cityname":"Hawaiian Gardens",
    "countyname":"Los Angeles",
    "stateabbr":"CA",
    "latitude":33.853611,
    "longitude":-118.133056
  },
  {
    "zipcode":90716,
    "cityname":"Hawaiian Gdns",
    "countyname":"Los Angeles",
    "stateabbr":"CA",
    "latitude":33.853611,
    "longitude":-118.133056
  },
  {
    "zipcode":90716,
    "cityname":"Lakewood",
    "countyname":"Los Angeles",
    "stateabbr":"CA",
    "latitude":33.853611,
    "longitude":-118.133056
  },
  {
    "zipcode":90717,
    "cityname":"Lomita",
    "countyname":"Los Angeles",
    "stateabbr":"CA",
    "latitude":33.794899,
    "longitude":-118.31645
  },
  {
    "zipcode":90720,
    "cityname":"Los Alamitos",
    "countyname":"Orange",
    "stateabbr":"CA",
    "latitude":33.795614,
    "longitude":-118.064756
  },
  {
    "zipcode":90720,
    "cityname":"Rossmoor",
    "countyname":"Orange",
    "stateabbr":"CA",
    "latitude":33.795614,
    "longitude":-118.064756
  },
  {
    "zipcode":90721,
    "cityname":"Los Alamitos",
    "countyname":"Orange",
    "stateabbr":"CA",
    "latitude":33.802254,
    "longitude":-118.068984
  },
  {
    "zipcode":90723,
    "cityname":"Paramount",
    "countyname":"Los Angeles",
    "stateabbr":"CA",
    "latitude":33.897236,
    "longitude":-118.160018
  },
  {
    "zipcode":90731,
    "cityname":"Fort Macarthur",
    "countyname":"Los Angeles",
    "stateabbr":"CA",
    "latitude":33.74352,
    "longitude":-118.27944
  },
  {
    "zipcode":90731,
    "cityname":"Ft Macarthur",
    "countyname":"Los Angeles",
    "stateabbr":"CA",
    "latitude":33.74352,
    "longitude":-118.27944
  },
  {
    "zipcode":90731,
    "cityname":"San Pedro",
    "countyname":"Los Angeles",
    "stateabbr":"CA",
    "latitude":33.74352,
    "longitude":-118.27944
  },
  {
    "zipcode":90731,
    "cityname":"Terminal Island",
    "countyname":"Los Angeles",
    "stateabbr":"CA",
    "latitude":33.74352,
    "longitude":-118.27944
  },
  {
    "zipcode":90732,
    "cityname":"San Pedro",
    "countyname":"Los Angeles",
    "stateabbr":"CA",
    "latitude":33.764107,
    "longitude":-118.303038
  },
  {
    "zipcode":90733,
    "cityname":"San Pedro",
    "countyname":"Los Angeles",
    "stateabbr":"CA",
    "latitude":33.706639,
    "longitude":-118.290674
  },
  {
    "zipcode":90734,
    "cityname":"San Pedro",
    "countyname":"Los Angeles",
    "stateabbr":"CA",
    "latitude":33.756107,
    "longitude":-118.30637
  },
  {
    "zipcode":90740,
    "cityname":"Seal Beach",
    "countyname":"Orange",
    "stateabbr":"CA",
    "latitude":33.760225,
    "longitude":-118.080806
  },
  {
    "zipcode":90742,
    "cityname":"Sunset Beach",
    "countyname":"Orange",
    "stateabbr":"CA",
    "latitude":33.718777,
    "longitude":-118.069914
  },
  {
    "zipcode":90743,
    "cityname":"Surfside",
    "countyname":"Orange",
    "stateabbr":"CA",
    "latitude":33.726441,
    "longitude":-118.083289
  },
  {
    "zipcode":90744,
    "cityname":"Wilmington",
    "countyname":"Los Angeles",
    "stateabbr":"CA",
    "latitude":33.791522,
    "longitude":-118.252215
  },
  {
    "zipcode":90745,
    "cityname":"Carson",
    "countyname":"Los Angeles",
    "stateabbr":"CA",
    "latitude":33.820353,
    "longitude":-118.266179
  },
  {
    "zipcode":90745,
    "cityname":"Long Beach",
    "countyname":"Los Angeles",
    "stateabbr":"CA",
    "latitude":33.820353,
    "longitude":-118.266179
  },
  {
    "zipcode":90746,
    "cityname":"Carson",
    "countyname":"Los Angeles",
    "stateabbr":"CA",
    "latitude":33.860506,
    "longitude":-118.255622
  },
  {
    "zipcode":90746,
    "cityname":"Long Beach",
    "countyname":"Los Angeles",
    "stateabbr":"CA",
    "latitude":33.860506,
    "longitude":-118.255622
  },
  {
    "zipcode":90747,
    "cityname":"C S U Dom Hls",
    "countyname":"Los Angeles",
    "stateabbr":"CA",
    "latitude":33.866528,
    "longitude":-118.253036
  },
  {
    "zipcode":90747,
    "cityname":"Cal State Univ Dom Hills",
    "countyname":"Los Angeles",
    "stateabbr":"CA",
    "latitude":33.866528,
    "longitude":-118.253036
  },
  {
    "zipcode":90747,
    "cityname":"Carson",
    "countyname":"Los Angeles",
    "stateabbr":"CA",
    "latitude":33.866528,
    "longitude":-118.253036
  },
  {
    "zipcode":90747,
    "cityname":"Long Beach",
    "countyname":"Los Angeles",
    "stateabbr":"CA",
    "latitude":33.866528,
    "longitude":-118.253036
  },
  {
    "zipcode":90748,
    "cityname":"Wilmington",
    "countyname":"Los Angeles",
    "stateabbr":"CA",
    "latitude":33.784149,
    "longitude":-118.263982
  },
  {
    "zipcode":90749,
    "cityname":"Carson",
    "countyname":"Los Angeles",
    "stateabbr":"CA",
    "latitude":33.819146,
    "longitude":-118.263108
  },
  {
    "zipcode":90749,
    "cityname":"Long Beach",
    "countyname":"Los Angeles",
    "stateabbr":"CA",
    "latitude":33.819146,
    "longitude":-118.263108
  },
  {
    "zipcode":90755,
    "cityname":"Long Beach",
    "countyname":"Los Angeles",
    "stateabbr":"CA",
    "latitude":33.779826,
    "longitude":-118.150529
  },
  {
    "zipcode":90755,
    "cityname":"Signal Hill",
    "countyname":"Los Angeles",
    "stateabbr":"CA",
    "latitude":33.779826,
    "longitude":-118.150529
  },
  {
    "zipcode":90755,
    "cityname":"Signal Hl",
    "countyname":"Los Angeles",
    "stateabbr":"CA",
    "latitude":33.779826,
    "longitude":-118.150529
  },
  {
    "zipcode":90801,
    "cityname":"Long Beach",
    "countyname":"Los Angeles",
    "stateabbr":"CA",
    "latitude":33.773782,
    "longitude":-118.186314
  },
  {
    "zipcode":90802,
    "cityname":"Long Beach",
    "countyname":"Los Angeles",
    "stateabbr":"CA",
    "latitude":33.770005,
    "longitude":-118.190518
  },
  {
    "zipcode":90803,
    "cityname":"Belmont Shore",
    "countyname":"Los Angeles",
    "stateabbr":"CA",
    "latitude":33.759309,
    "longitude":-118.125598
  },
  {
    "zipcode":90803,
    "cityname":"Long Beach",
    "countyname":"Los Angeles",
    "stateabbr":"CA",
    "latitude":33.759309,
    "longitude":-118.125598
  },
  {
    "zipcode":90803,
    "cityname":"Naples",
    "countyname":"Los Angeles",
    "stateabbr":"CA",
    "latitude":33.759309,
    "longitude":-118.125598
  },
  {
    "zipcode":90804,
    "cityname":"East Long Beach",
    "countyname":"Los Angeles",
    "stateabbr":"CA",
    "latitude":33.776725,
    "longitude":-118.14615
  },
  {
    "zipcode":90804,
    "cityname":"Long Beach",
    "countyname":"Los Angeles",
    "stateabbr":"CA",
    "latitude":33.776725,
    "longitude":-118.14615
  },
  {
    "zipcode":90804,
    "cityname":"Signal Hill",
    "countyname":"Los Angeles",
    "stateabbr":"CA",
    "latitude":33.776725,
    "longitude":-118.14615
  },
  {
    "zipcode":90805,
    "cityname":"Lakewood",
    "countyname":"Los Angeles",
    "stateabbr":"CA",
    "latitude":33.863555,
    "longitude":-118.182163
  },
  {
    "zipcode":90805,
    "cityname":"Long Beach",
    "countyname":"Los Angeles",
    "stateabbr":"CA",
    "latitude":33.863555,
    "longitude":-118.182163
  },
  {
    "zipcode":90805,
    "cityname":"North Long Beach",
    "countyname":"Los Angeles",
    "stateabbr":"CA",
    "latitude":33.863555,
    "longitude":-118.182163
  },
  {
    "zipcode":90806,
    "cityname":"Long Beach",
    "countyname":"Los Angeles",
    "stateabbr":"CA",
    "latitude":33.805737,
    "longitude":-118.181738
  },
  {
    "zipcode":90807,
    "cityname":"Bixby Knolls",
    "countyname":"Los Angeles",
    "stateabbr":"CA",
    "latitude":33.827641,
    "longitude":-118.179228
  },
  {
    "zipcode":90807,
    "cityname":"Long Beach",
    "countyname":"Los Angeles",
    "stateabbr":"CA",
    "latitude":33.827641,
    "longitude":-118.179228
  },
  {
    "zipcode":90807,
    "cityname":"Signal Hill",
    "countyname":"Los Angeles",
    "stateabbr":"CA",
    "latitude":33.827641,
    "longitude":-118.179228
  },
  {
    "zipcode":90808,
    "cityname":"Long Beach",
    "countyname":"Los Angeles",
    "stateabbr":"CA",
    "latitude":33.819908,
    "longitude":-118.105424
  },
  {
    "zipcode":90809,
    "cityname":"LB",
    "countyname":"Los Angeles",
    "stateabbr":"CA",
    "latitude":33.762376,
    "longitude":-118.121919
  },
  {
    "zipcode":90809,
    "cityname":"Long Beach",
    "countyname":"Los Angeles",
    "stateabbr":"CA",
    "latitude":33.762376,
    "longitude":-118.121919
  },
  {
    "zipcode":90810,
    "cityname":"Cabrillo",
    "countyname":"Los Angeles",
    "stateabbr":"CA",
    "latitude":33.81798,
    "longitude":-118.22328
  },
  {
    "zipcode":90810,
    "cityname":"Carson",
    "countyname":"Los Angeles",
    "stateabbr":"CA",
    "latitude":33.81798,
    "longitude":-118.22328
  },
  {
    "zipcode":90810,
    "cityname":"Dominguez",
    "countyname":"Los Angeles",
    "stateabbr":"CA",
    "latitude":33.81798,
    "longitude":-118.22328
  },
  {
    "zipcode":90810,
    "cityname":"Long Beach",
    "countyname":"Los Angeles",
    "stateabbr":"CA",
    "latitude":33.81798,
    "longitude":-118.22328
  },
  {
    "zipcode":90813,
    "cityname":"Long Beach",
    "countyname":"Los Angeles",
    "stateabbr":"CA",
    "latitude":33.778685,
    "longitude":-118.191698
  },
  {
    "zipcode":90814,
    "cityname":"Long Beach",
    "countyname":"Los Angeles",
    "stateabbr":"CA",
    "latitude":33.770764,
    "longitude":-118.150873
  },
  {
    "zipcode":90815,
    "cityname":"Long Beach",
    "countyname":"Los Angeles",
    "stateabbr":"CA",
    "latitude":33.794234,
    "longitude":-118.115561
  },
  {
    "zipcode":90822,
    "cityname":"Long Beach",
    "countyname":"Los Angeles",
    "stateabbr":"CA",
    "latitude":33.831262,
    "longitude":-118.238192
  },
  {
    "zipcode":90822,
    "cityname":"Long Beach Shared Firm",
    "countyname":"Los Angeles",
    "stateabbr":"CA",
    "latitude":33.831262,
    "longitude":-118.238192
  },
  {
    "zipcode":90831,
    "cityname":"Long Beach",
    "countyname":"Los Angeles",
    "stateabbr":"CA",
    "latitude":33.77041,
    "longitude":-118.200783
  },
  {
    "zipcode":90832,
    "cityname":"Long Beach",
    "countyname":"Los Angeles",
    "stateabbr":"CA",
    "latitude":33.765894,
    "longitude":-118.198595
  },
  {
    "zipcode":90833,
    "cityname":"Long Beach",
    "countyname":"Los Angeles",
    "stateabbr":"CA",
    "latitude":33.766363,
    "longitude":-118.203087
  },
  {
    "zipcode":90834,
    "cityname":"Long Beach",
    "countyname":"Los Angeles",
    "stateabbr":"CA",
    "latitude":33.770162,
    "longitude":-118.203615
  },
  {
    "zipcode":90835,
    "cityname":"Long Beach",
    "countyname":"Los Angeles",
    "stateabbr":"CA",
    "latitude":33.769489,
    "longitude":-118.200353
  },
  {
    "zipcode":90840,
    "cityname":"C S U Long Beach",
    "countyname":"Los Angeles",
    "stateabbr":"CA",
    "latitude":33.781444,
    "longitude":-118.118257
  },
  {
    "zipcode":90840,
    "cityname":"Calif State Univ Long Beach",
    "countyname":"Los Angeles",
    "stateabbr":"CA",
    "latitude":33.781444,
    "longitude":-118.118257
  },
  {
    "zipcode":90840,
    "cityname":"Long Beach",
    "countyname":"Los Angeles",
    "stateabbr":"CA",
    "latitude":33.781444,
    "longitude":-118.118257
  },
  {
    "zipcode":90842,
    "cityname":"Department of Gas & Water",
    "countyname":"Los Angeles",
    "stateabbr":"CA",
    "latitude":33.819348,
    "longitude":-118.168139
  },
  {
    "zipcode":90842,
    "cityname":"Long Beach",
    "countyname":"Los Angeles",
    "stateabbr":"CA",
    "latitude":33.819348,
    "longitude":-118.168139
  },
  {
    "zipcode":90844,
    "cityname":"Long Beach",
    "countyname":"Los Angeles",
    "stateabbr":"CA",
    "latitude":33.776755,
    "longitude":-118.191618
  },
  {
    "zipcode":90844,
    "cityname":"Press Telegram",
    "countyname":"Los Angeles",
    "stateabbr":"CA",
    "latitude":33.776755,
    "longitude":-118.191618
  },
  {
    "zipcode":90845,
    "cityname":"Buffums",
    "countyname":"Los Angeles",
    "stateabbr":"CA",
    "latitude":33.770244,
    "longitude":-118.192841
  },
  {
    "zipcode":90845,
    "cityname":"Long Beach",
    "countyname":"Los Angeles",
    "stateabbr":"CA",
    "latitude":33.770244,
    "longitude":-118.192841
  },
  {
    "zipcode":90846,
    "cityname":"Boeing",
    "countyname":"Los Angeles",
    "stateabbr":"CA",
    "latitude":33.825962,
    "longitude":-118.120925
  },
  {
    "zipcode":90846,
    "cityname":"Long Beach",
    "countyname":"Los Angeles",
    "stateabbr":"CA",
    "latitude":33.825962,
    "longitude":-118.120925
  },
  {
    "zipcode":90847,
    "cityname":"AARP",
    "countyname":"Los Angeles",
    "stateabbr":"CA",
    "latitude":33.834248,
    "longitude":-118.189003
  },
  {
    "zipcode":90847,
    "cityname":"Long Beach",
    "countyname":"Los Angeles",
    "stateabbr":"CA",
    "latitude":33.834248,
    "longitude":-118.189003
  },
  {
    "zipcode":90848,
    "cityname":"A A R P",
    "countyname":"Los Angeles",
    "stateabbr":"CA",
    "latitude":33.830348,
    "longitude":-118.184925
  },
  {
    "zipcode":90848,
    "cityname":"A A R P Pharmacy",
    "countyname":"Los Angeles",
    "stateabbr":"CA",
    "latitude":33.830348,
    "longitude":-118.184925
  },
  {
    "zipcode":90848,
    "cityname":"Long Beach",
    "countyname":"Los Angeles",
    "stateabbr":"CA",
    "latitude":33.830348,
    "longitude":-118.184925
  },
  {
    "zipcode":90853,
    "cityname":"Long Beach",
    "countyname":"Los Angeles",
    "stateabbr":"CA",
    "latitude":33.7604,
    "longitude":-118.132702
  },
  {
    "zipcode":90888,
    "cityname":"Far",
    "countyname":"Los Angeles",
    "stateabbr":"CA",
    "latitude":33.803122,
    "longitude":-118.17996
  },
  {
    "zipcode":90888,
    "cityname":"Foundation Airborne Relief",
    "countyname":"Los Angeles",
    "stateabbr":"CA",
    "latitude":33.803122,
    "longitude":-118.17996
  },
  {
    "zipcode":90888,
    "cityname":"Long Beach",
    "countyname":"Los Angeles",
    "stateabbr":"CA",
    "latitude":33.803122,
    "longitude":-118.17996
  },
  {
    "zipcode":90895,
    "cityname":"Carson",
    "countyname":"Los Angeles",
    "stateabbr":"CA",
    "latitude":33.83968,
    "longitude":-118.25959
  },
  {
    "zipcode":90895,
    "cityname":"Lakeshore Learning",
    "countyname":"Los Angeles",
    "stateabbr":"CA",
    "latitude":33.83968,
    "longitude":-118.25959
  },
  {
    "zipcode":90895,
    "cityname":"Long Beach",
    "countyname":"Los Angeles",
    "stateabbr":"CA",
    "latitude":33.83968,
    "longitude":-118.25959
  },
  {
    "zipcode":90899,
    "cityname":"La International Service Ctr",
    "countyname":"Los Angeles",
    "stateabbr":"CA",
    "latitude":33.767496,
    "longitude":-118.187712
  },
  {
    "zipcode":90899,
    "cityname":"Long Beach",
    "countyname":"Los Angeles",
    "stateabbr":"CA",
    "latitude":33.767496,
    "longitude":-118.187712
  },
  {
    "zipcode":91001,
    "cityname":"Altadena",
    "countyname":"Los Angeles",
    "stateabbr":"CA",
    "latitude":34.188413,
    "longitude":-118.140109
  },
  {
    "zipcode":91003,
    "cityname":"Altadena",
    "countyname":"Los Angeles",
    "stateabbr":"CA",
    "latitude":34.185055,
    "longitude":-118.130218
  },
  {
    "zipcode":91006,
    "cityname":"Arcadia",
    "countyname":"Los Angeles",
    "stateabbr":"CA",
    "latitude":34.13765,
    "longitude":-118.023582
  },
  {
    "zipcode":91007,
    "cityname":"Arcadia",
    "countyname":"Los Angeles",
    "stateabbr":"CA",
    "latitude":34.129883,
    "longitude":-118.051077
  },
  {
    "zipcode":91008,
    "cityname":"Bradbury",
    "countyname":"Los Angeles",
    "stateabbr":"CA",
    "latitude":34.152274,
    "longitude":-117.96817
  },
  {
    "zipcode":91008,
    "cityname":"Duarte",
    "countyname":"Los Angeles",
    "stateabbr":"CA",
    "latitude":34.152274,
    "longitude":-117.96817
  },
  {
    "zipcode":91009,
    "cityname":"Duarte",
    "countyname":"Los Angeles",
    "stateabbr":"CA",
    "latitude":34.139758,
    "longitude":-117.967298
  },
  {
    "zipcode":91010,
    "cityname":"Bradbury",
    "countyname":"Los Angeles",
    "stateabbr":"CA",
    "latitude":34.138594,
    "longitude":-117.963204
  },
  {
    "zipcode":91010,
    "cityname":"Duarte",
    "countyname":"Los Angeles",
    "stateabbr":"CA",
    "latitude":34.138594,
    "longitude":-117.963204
  },
  {
    "zipcode":91010,
    "cityname":"Irwindale",
    "countyname":"Los Angeles",
    "stateabbr":"CA",
    "latitude":34.138594,
    "longitude":-117.963204
  },
  {
    "zipcode":91011,
    "cityname":"Flintridge",
    "countyname":"Los Angeles",
    "stateabbr":"CA",
    "latitude":34.206651,
    "longitude":-118.201628
  },
  {
    "zipcode":91011,
    "cityname":"La Canada",
    "countyname":"Los Angeles",
    "stateabbr":"CA",
    "latitude":34.206651,
    "longitude":-118.201628
  },
  {
    "zipcode":91011,
    "cityname":"La Canada Flintridge",
    "countyname":"Los Angeles",
    "stateabbr":"CA",
    "latitude":34.206651,
    "longitude":-118.201628
  },
  {
    "zipcode":91011,
    "cityname":"La Canada Flt",
    "countyname":"Los Angeles",
    "stateabbr":"CA",
    "latitude":34.206651,
    "longitude":-118.201628
  },
  {
    "zipcode":91012,
    "cityname":"La Canada",
    "countyname":"Los Angeles",
    "stateabbr":"CA",
    "latitude":34.203774,
    "longitude":-118.191187
  },
  {
    "zipcode":91012,
    "cityname":"La Canada Flintridge",
    "countyname":"Los Angeles",
    "stateabbr":"CA",
    "latitude":34.203774,
    "longitude":-118.191187
  },
  {
    "zipcode":91012,
    "cityname":"La Canada Flt",
    "countyname":"Los Angeles",
    "stateabbr":"CA",
    "latitude":34.203774,
    "longitude":-118.191187
  },
  {
    "zipcode":91016,
    "cityname":"Monrovia",
    "countyname":"Los Angeles",
    "stateabbr":"CA",
    "latitude":34.143769,
    "longitude":-117.999476
  },
  {
    "zipcode":91017,
    "cityname":"Monrovia",
    "countyname":"Los Angeles",
    "stateabbr":"CA",
    "latitude":34.131442,
    "longitude":-117.987304
  },
  {
    "zipcode":91020,
    "cityname":"Montrose",
    "countyname":"Los Angeles",
    "stateabbr":"CA",
    "latitude":34.209369,
    "longitude":-118.229787
  },
  {
    "zipcode":91021,
    "cityname":"Montrose",
    "countyname":"Los Angeles",
    "stateabbr":"CA",
    "latitude":34.206931,
    "longitude":-118.225323
  },
  {
    "zipcode":91023,
    "cityname":"Mount Wilson",
    "countyname":"Los Angeles",
    "stateabbr":"CA",
    "latitude":34.226166,
    "longitude":-118.092289
  },
  {
    "zipcode":91024,
    "cityname":"Sierra Madre",
    "countyname":"Los Angeles",
    "stateabbr":"CA",
    "latitude":34.164984,
    "longitude":-118.051648
  },
  {
    "zipcode":91025,
    "cityname":"Sierra Madre",
    "countyname":"Los Angeles",
    "stateabbr":"CA",
    "latitude":34.157498,
    "longitude":-118.051198
  },
  {
    "zipcode":91030,
    "cityname":"S Pasadena",
    "countyname":"Los Angeles",
    "stateabbr":"CA",
    "latitude":34.11187,
    "longitude":-118.155784
  },
  {
    "zipcode":91030,
    "cityname":"South Pasadena",
    "countyname":"Los Angeles",
    "stateabbr":"CA",
    "latitude":34.11187,
    "longitude":-118.155784
  },
  {
    "zipcode":91031,
    "cityname":"S Pasadena",
    "countyname":"Los Angeles",
    "stateabbr":"CA",
    "latitude":34.117536,
    "longitude":-118.151757
  },
  {
    "zipcode":91031,
    "cityname":"South Pasadena",
    "countyname":"Los Angeles",
    "stateabbr":"CA",
    "latitude":34.117536,
    "longitude":-118.151757
  },
  {
    "zipcode":91040,
    "cityname":"Shadow Hills",
    "countyname":"Los Angeles",
    "stateabbr":"CA",
    "latitude":34.26003,
    "longitude":-118.332661
  },
  {
    "zipcode":91040,
    "cityname":"Sunland",
    "countyname":"Los Angeles",
    "stateabbr":"CA",
    "latitude":34.26003,
    "longitude":-118.332661
  },
  {
    "zipcode":91041,
    "cityname":"Sunland",
    "countyname":"Los Angeles",
    "stateabbr":"CA",
    "latitude":34.262512,
    "longitude":-118.318113
  },
  {
    "zipcode":91042,
    "cityname":"Tujunga",
    "countyname":"Los Angeles",
    "stateabbr":"CA",
    "latitude":34.252366,
    "longitude":-118.283924
  },
  {
    "zipcode":91043,
    "cityname":"Tujunga",
    "countyname":"Los Angeles",
    "stateabbr":"CA",
    "latitude":34.252009,
    "longitude":-118.292791
  },
  {
    "zipcode":91046,
    "cityname":"Verdugo City",
    "countyname":"Los Angeles",
    "stateabbr":"CA",
    "latitude":34.209793,
    "longitude":-118.241838
  },
  {
    "zipcode":91066,
    "cityname":"Arcadia",
    "countyname":"Los Angeles",
    "stateabbr":"CA",
    "latitude":34.142937,
    "longitude":-118.031242
  },
  {
    "zipcode":91077,
    "cityname":"Arcadia",
    "countyname":"Los Angeles",
    "stateabbr":"CA",
    "latitude":34.12539,
    "longitude":-118.05468
  },
  {
    "zipcode":91101,
    "cityname":"Pasadena",
    "countyname":"Los Angeles",
    "stateabbr":"CA",
    "latitude":34.147489,
    "longitude":-118.139596
  },
  {
    "zipcode":91102,
    "cityname":"Pasadena",
    "countyname":"Los Angeles",
    "stateabbr":"CA",
    "latitude":34.148314,
    "longitude":-118.143097
  },
  {
    "zipcode":91103,
    "cityname":"Pasadena",
    "countyname":"Los Angeles",
    "stateabbr":"CA",
    "latitude":34.162838,
    "longitude":-118.165209
  },
  {
    "zipcode":91104,
    "cityname":"Pasadena",
    "countyname":"Los Angeles",
    "stateabbr":"CA",
    "latitude":34.166482,
    "longitude":-118.120445
  },
  {
    "zipcode":91105,
    "cityname":"Pasadena",
    "countyname":"Los Angeles",
    "stateabbr":"CA",
    "latitude":34.137436,
    "longitude":-118.167057
  },
  {
    "zipcode":91106,
    "cityname":"Pasadena",
    "countyname":"Los Angeles",
    "stateabbr":"CA",
    "latitude":34.142301,
    "longitude":-118.125711
  },
  {
    "zipcode":91107,
    "cityname":"Pasadena",
    "countyname":"Los Angeles",
    "stateabbr":"CA",
    "latitude":34.152009,
    "longitude":-118.088972
  },
  {
    "zipcode":91108,
    "cityname":"Pasadena",
    "countyname":"Los Angeles",
    "stateabbr":"CA",
    "latitude":34.122334,
    "longitude":-118.114252
  },
  {
    "zipcode":91108,
    "cityname":"San Marino",
    "countyname":"Los Angeles",
    "stateabbr":"CA",
    "latitude":34.122334,
    "longitude":-118.114252
  },
  {
    "zipcode":91109,
    "cityname":"Pasadena",
    "countyname":"Los Angeles",
    "stateabbr":"CA",
    "latitude":34.167069,
    "longitude":-118.164718
  },
  {
    "zipcode":91110,
    "cityname":"Pasadena",
    "countyname":"Los Angeles",
    "stateabbr":"CA",
    "latitude":34.155939,
    "longitude":-118.154292
  },
  {
    "zipcode":91110,
    "cityname":"Shared Firm Zip Code",
    "countyname":"Los Angeles",
    "stateabbr":"CA",
    "latitude":34.155939,
    "longitude":-118.154292
  },
  {
    "zipcode":91114,
    "cityname":"Pasadena",
    "countyname":"Los Angeles",
    "stateabbr":"CA",
    "latitude":34.168363,
    "longitude":-118.12644
  },
  {
    "zipcode":91115,
    "cityname":"Pasadena",
    "countyname":"Los Angeles",
    "stateabbr":"CA",
    "latitude":34.135882,
    "longitude":-118.151588
  },
  {
    "zipcode":91116,
    "cityname":"Pasadena",
    "countyname":"Los Angeles",
    "stateabbr":"CA",
    "latitude":34.143178,
    "longitude":-118.128197
  },
  {
    "zipcode":91117,
    "cityname":"Pasadena",
    "countyname":"Los Angeles",
    "stateabbr":"CA",
    "latitude":34.14702,
    "longitude":-118.092722
  },
  {
    "zipcode":91118,
    "cityname":"Pasadena",
    "countyname":"Los Angeles",
    "stateabbr":"CA",
    "latitude":34.125011,
    "longitude":-118.092416
  },
  {
    "zipcode":91118,
    "cityname":"San Marino",
    "countyname":"Los Angeles",
    "stateabbr":"CA",
    "latitude":34.125011,
    "longitude":-118.092416
  },
  {
    "zipcode":91121,
    "cityname":"Avon Products",
    "countyname":"Los Angeles",
    "stateabbr":"CA",
    "latitude":34.149921,
    "longitude":-118.088599
  },
  {
    "zipcode":91121,
    "cityname":"Pasadena",
    "countyname":"Los Angeles",
    "stateabbr":"CA",
    "latitude":34.149921,
    "longitude":-118.088599
  },
  {
    "zipcode":91123,
    "cityname":"Ambassador College",
    "countyname":"Los Angeles",
    "stateabbr":"CA",
    "latitude":34.138331,
    "longitude":-118.152775
  },
  {
    "zipcode":91123,
    "cityname":"Pasadena",
    "countyname":"Los Angeles",
    "stateabbr":"CA",
    "latitude":34.138331,
    "longitude":-118.152775
  },
  {
    "zipcode":91124,
    "cityname":"Pasadena",
    "countyname":"Los Angeles",
    "stateabbr":"CA",
    "latitude":34.150182,
    "longitude":-118.152862
  },
  {
    "zipcode":91124,
    "cityname":"Ralph M Parsons Co",
    "countyname":"Los Angeles",
    "stateabbr":"CA",
    "latitude":34.150182,
    "longitude":-118.152862
  },
  {
    "zipcode":91125,
    "cityname":"Cal Tech",
    "countyname":"Los Angeles",
    "stateabbr":"CA",
    "latitude":34.138929,
    "longitude":-118.123728
  },
  {
    "zipcode":91125,
    "cityname":"Pasadena",
    "countyname":"Los Angeles",
    "stateabbr":"CA",
    "latitude":34.138929,
    "longitude":-118.123728
  },